provider_ruc,provider_name,provider_lat,provider_lng,provider_heading,sum_coactive_debt
20602348106,CORPORACION ALME E.I.R.L.,-8.0948246,-79.0323706,PROD. ASEO Y LIMPIEZA,0.0
20571505488,GRUPO CONSTRUCTOR HAZ Y HNOS LA S.R.L.,-16.3912193,-71.5747551,OTROS SERVICIOS,0.0
20604357251,CORPORACION ALQA S.A.C.,-11.8413422,-77.1280897,ALIMENTOS,253109.0
20602777279,POTREROO S.A.C.,-12.046583914141413,-77.03489854747474,ALIMENTOS,161.0
20601592020,CORPORACION MAVALU E.I.R.L.,-13.160344823958333,-74.22296812291667,ALIMENTOS,0.0
20448728464,AGRO ANDINA DEL PERU SOCIEDAD COMERCIAL DE RESPONSABILIDAD LIMITADA,-15.5085249,-70.1241928,ALIMENTOS,1039.0
20542315980,AZLO PRODUCCIONES SOCIEDAD ANONIMA CERRADA,-6.7449577,-79.868795,ALIMENTOS,194.0
20476699101,THAYA SRL.,-5.1804021,-80.6113489,ALIMENTOS,0.0
20600981723,"IMPORTACIONES Y EXPORTACIONES ""TRAVEC"" S.A.C.",-16.3962368,-71.5365482,ALIMENTOS,15890.0
20532515956,COMPANY SANDOVAL E.I.R.L.  - COMSA E.I.R.L.,-12.0515251,-77.1150531,ALIMENTOS,0.0
20600524454,DISTRIBUIDORA DE GOLOSINAS Y ABARROTES ZOE S.A.C.,-11.9430053,-77.1352741,ALIMENTOS,0.0
20531068549,AGRO SERVICIOS Y PRODUCCION DE ALIMENTOS SAN JUAN DE PISCO S.R.L.,-12.0691925,-77.1162638,ALIMENTOS,0.0
20600224922,J & E INVERSIONES PACIFICO S.A.C.,-12.0231797,-77.1324714,ALIMENTOS,0.0
20419385442,UTILITARIOS MEDICOS S.A.C.,-11.9742447,-77.0633912,MATERIAL Y EQUIPO MEDICO,0.0
20523097271,PACIFICO SALUD SOCIEDAD ANONIMA CERRADA - PACIFICO SALUD S.A.C,-18.0187189,-70.238486,MATERIAL Y EQUIPO MEDICO,20.0
20510124881,VENTURY & ASOCIADOS S. A. C.,-11.981073,-77.1089577,MATERIAL Y EQUIPO MEDICO,0.0
20155196069,IRIMED EIRL,-12.0810031,-77.0950318,OTROS BIENES,0.0
20451319800,COMERCIALIZADORA SAN JUAN SAC,-3.7434083,-73.2470893,ALIMENTOS,0.0
20558684683,GRUPO VALENCIA S.A.C.,-12.062787,-77.0435009,PROD. ASEO Y LIMPIEZA,0.0
20603682344,DISTRIBUIDORA ROAZUL S.R.L.,-12.050781,-77.0959066,ALIMENTOS,3188.0
20600110625,INVERSIONES ANTONELA S.A.C.,-11.7422871,-76.6500625,MATERIAL Y EQUIPO MEDICO,0.0
20600159071,LUKAT CONTRATISTAS GENERALES E.I.R.L.,-8.1198876,-79.0212878,MATERIAL Y EQUIPO MEDICO,0.0
20514468959,UNIFORM SNIPER E.I.R.L.,-12.0387871,-77.0322571,MATERIAL Y EQUIPO MEDICO,0.0
20549929398,DMA SERVICIOS S.R.L.,-12.0312294,-77.0172211,MATERIAL Y EQUIPO MEDICO,0.0
20542645696,ALMACENES CORONADO EMPRESA INDIVIDUAL DE RESPONSABILIDAD LIMITADA,-16.4027886,-71.5396717,ALIMENTOS,0.0
20532552304,GRUPO JÓVER BIENES Y SERVICIOS E.I.R.L.,-12.0445345,-77.1123622,ALIMENTOS,0.0
20556049671,MARKETING Y LOGISTICA PERU S.A.C.,-12.0001614,-76.9957065,MATERIAL Y EQUIPO MEDICO,0.0
20301955406,HIGIENE Y LIMPIEZA S.R.LTDA.,-12.12837,-77.0229211,PROD. ASEO Y LIMPIEZA,0.0
20516859971,CORPORACION ALESVA SAC,-12.0691675,-77.011879,ADQUISICIÓN Y ALQUILER DE VEHÍCULOS,0.0
20568832079,OBRAS Y DISEÑOS JK E.I.R.L.,-12.0177268,-76.9203023,OTROS SERVICIOS,601.0
20381664091,REPRESENTACIONES Y SERVICIOS STEFFANY E.I.R.L.,-12.039254549999999,-76.91443225089222,OTROS SERVICIOS,0.0
20600374843,GRUPO OLIVARES DELZ S.A.C.,-5.0930943,-81.1129711,OTROS SERVICIOS,0.0
20529160543,CORPORACION VIRGEN MORENA DE GUADALUPE SAC,-9.9281269,-76.2323585,MATERIAL Y EQUIPO MEDICO,1282.0
20601845301,GRUPO MAGDIEL E.I.R.L.,-12.9366947,-73.5293394,ALIMENTOS,0.0
20601006571,MC PROYECTS AND INVESTMENTS S.A.C.,-12.0904548,-77.0190702,PROD. ASEO Y LIMPIEZA,0.0
20130329471,ALBUJAR MEDICA S.A.C.,-11.995790007070708,-77.1113660040404,MATERIAL Y EQUIPO MEDICO,0.0
20406499562,ALIMENTOS PROCESADOS COILA S.A.C.,-11.9655974,-77.0141817,ALIMENTOS,0.0
20601598567,CORPORACION NUTRIANDINA SOCIEDAD COMERCIA DE RESPONSABILIDAD LIMITADA - CORP. NUTRIANDINA S.R.L.,-16.4089361,-71.4972463,ALIMENTOS,0.0
20600412249,ARIKEY PERU E.I.R.L.,-16.4027886,-71.5396717,ALIMENTOS,0.0
20604255415,CORPORACION LM DIAZ SOCIEDAD ANONIMA CERRADA,-12.2045871,-76.9749079,ALIMENTOS,364.0
20369007760,COMERCIAL EL CHOTANITO SOC. RESP. LTDA.,-5.7095075,-78.8074105,OTROS BIENES,0.0
20489692911,INVERSIONES RIO AZUL SOCIEDAD DE RESPONSABILIDAD LIMITADA,-18.0382018,-70.2752599,PROD. ASEO Y LIMPIEZA,0.0
20604594481,MULTISERVICIOS W N & J EMPRESA INDIVIDUAL DE RESPONSABILIDAD LIMITADA,-11.9678367,-77.0109387,PROD. ASEO Y LIMPIEZA,0.0
20601269377,AXA TEAM S.A.C.,-12.0559164,-77.0998125,MATERIAL Y EQUIPO MEDICO,24.0
20491985071,HEYSERG S.A.C.,-11.824548,-77.1335621,ADQUISICIÓN Y ALQUILER DE VEHÍCULOS,0.0
20602098886,COMERCIAL Y DISTRIBUIDORA FIHANQUI SOCIEDAD COMERCIAL DE RESPONSABILIDAD LIMITADA,-16.3436884,-71.5401597,ALIMENTOS,0.0
20601434211,ECOPEVA FOODS E.I.R.L.,-8.371111,-74.5442011,ALIMENTOS,0.0
20538850986,K & C TRADING GROUP S.A.C.,-13.5111564,-72.0089255,PROD. ASEO Y LIMPIEZA,181.0
20493867530,DROGUERIA AMAZONIA MEDICA E.I R.L.,-16.5711467,-72.7149743,MATERIAL Y EQUIPO MEDICO,0.0
20603136013,M & N MEDICAL EQUIPOS E.I.R.L.,-3.7410779,-73.246703,OTROS BIENES,9491.0
20603814216,DROGUERIA ALMI FARMA DE LA SELVA E.I.R.L.,-6.8966097,-79.8435876,MATERIAL Y EQUIPO MEDICO,0.0
20445195007,DISTRIBUIDORA Y SERVICIOS VIVIANA EIRL,-8.134874100000001,-79.05209009854508,ALIMENTOS,0.0
20600913591,AMERICA LAB SOCIEDAD ANONIMA CERRADA,-18.0142951,-70.2426513,MATERIAL Y EQUIPO MEDICO,0.0
20548494355,IMPORTACIONES & REPRESENTACIONES ARIAMED S.A.C.,-12.22545455,-76.93106209210191,MATERIAL Y EQUIPO MEDICO,0.0
20521906732,TECNISAN E.I.R.L.,-12.113046926530613,-77.02277939387756,LIMPIEZA Y FUMIGACIÓN,0.0
20605225285,MEDICAL INSIGHT SOCIEDAD ANONIMA CERRADA - MEDICAL INSIGHT S.A.C.,-12.073716204040403,-77.16345561212121,MATERIAL Y EQUIPO MEDICO,0.0
20602505635,ASOCIACION DE PRODUCTORES AGROPECUARIOS MULTISERVICIOS DEL VALLE PUCATE,-10.6795968,-77.8149096,ALIMENTOS,0.0
20528951466,DISTRIBUIDORA KADMIEL SRL,-9.3035773,-76.0033702,ALIMENTOS,0.0
20393665093,EFOA TRADING EIRL,-8.3896757,-74.5740142,MATERIAL Y EQUIPO MEDICO,0.0
20601825687,CORPORACION NACIONAL ALIMENTARIA R Y H SOCIEDAD ANONIMA CERRADA,-6.7874724,-79.8665714,ALIMENTOS,0.0
20448165044,CONSORCIO FAHE SOCIEDAD ANONIMA CERRADA,-11.9664138,-77.0089764,ALIMENTOS,465.0
20605781978,JAMH E.I.R.L.,-5.8949943,-76.1037547,MATERIAL Y EQUIPO MEDICO,310.0
20101337261,ROCA S.A.C.,-12.0878777,-76.9730872,MATERIAL Y EQUIPO MEDICO,0.0
20522552527,ROSIMED PERU E.I.R.L.,-11.9016484,-77.0553457,PROD. ASEO Y LIMPIEZA,260.0
20554379711,R & A KLINER S.A.C.,-12.1540013,-76.9594494,LIMPIEZA Y FUMIGACIÓN,0.0
20266777184,MEGAPACK TRADING SAC,-12.11043885,-76.98790987697515,LIMPIEZA Y FUMIGACIÓN,0.0
20548847967,CLEAN BUS S.A.C.,-12.0001614,-76.9957065,LIMPIEZA Y FUMIGACIÓN,0.0
20564413527,DISTRIBUCIONES MICARDI S.R.L.,-8.1049557,-79.0237277,ALIMENTOS,0.0
20602391052,TIENDAS DEL E.I.R.L.,-16.403724,-71.5493341,ALIMENTOS,0.0
20601057027,DROGUERIA E IMPORTADORA MEDICONS S.A.C,-6.4831608,-76.3796822,MATERIAL Y EQUIPO MEDICO,0.0
20448310311,COPICSA PERU SOCIEDAD ANONIMA CERRADA,-13.5175309,-71.9675989,ALIMENTOS,0.0
20549389181,INVERSIONES ENCISO EFE SOCIEDAD ANONIMA CERRADA - INVERSIONES ENCISO EFE S.A.C.,-12.0320869,-77.0888,ADQUISICIÓN Y ALQUILER DE VEHÍCULOS,0.0
20516042886,TRANSPORTES ENCISO S.A.C.,-12.1358769,-77.0064297,ADQUISICIÓN Y ALQUILER DE VEHÍCULOS,0.0
20501262260,GEN LAB DEL PERU S.A.C.,-8.1200517,-79.0233378,MATERIAL Y EQUIPO MEDICO,1973.0
20562842145,BTS CONSULTORES S.A.C.,-12.0452482,-77.0456287,MATERIAL Y EQUIPO MEDICO,0.0
20533692606,GRUPO EMPRESARIAL LUDIN E.I.R.L.,-5.209094,-80.6358504,ALIMENTOS,0.0
20391308668,HACIENDA EL POTRERO SAC,-5.7166547,-78.8031867,ALIMENTOS,0.0
20605485651,EMERVIC S.A.C.,-17.9679842,-70.1939605,ALIMENTOS,0.0
20538929817,ASOCIACION DE PRODUCTORES ORILLAS DEL MARAÑON,-5.7155167,-78.8028739,ALIMENTOS,0.0
20450107086,COMERCIAL KELLY S.A.C.,-6.6644013,-76.2860165,ALIMENTOS,0.0
20572266258,NEGOCIACIONES PAPILON SAC,-5.8987504,-76.1061575,ALIMENTOS,55270.0
20404440501,LA ZOOTECNIA E.I.R.L.,-17.1980909,-70.9367577,ALIMENTOS,821.0
20407916396,CONSTRUCTORA Y SERVICIOS GENERALES OSCAR FABIAN S.A.C.,-11.8866635,-77.0960843,ALIMENTOS,0.0
20602533116,ELECTROTEL PERU G&G E.I.R.L.,-4.8988058,-80.6914748,ALIMENTOS,221.0
20600026322,NEGOCIOS Y SERVICIOS SAMMY D&R  EIRL,-10.7744634,-75.0596076,ALIMENTOS,177.0
20491803658,LAS NUEVAS TIENDAS ALEX S.A.C,-12.9366947,-73.5293394,ALIMENTOS,0.0
20601744199,INDUSTRIAS ATLANTA & ASOCIADOS E.I.R.L.,-11.8444481,-77.1288941,ALIMENTOS,5287.0
20442550060,REPRESENTACIONES SANTO DOMINGO S.R.L.,-8.3758427,-74.5475372,ALIMENTOS,0.0
20603092989,JORCOWA TRADE S.A.C,-13.5235738,-71.9748884,ALIMENTOS,0.0
20534353511,NEGOCIACIONES CORAHUA S.A.C.,-11.9451446,-77.1348505,ALIMENTOS,336.0
20498248153,INVERSIONES CASTRO-AGUILAR S.C.R.L.,-16.3564601,-71.5411228,ALIMENTOS,0.0
20604501629,PROCESADORA DE ALIMENTOS PILAR SOCIEDAD ANONIMA CERRADA,-16.4076846,-71.5340989,ALIMENTOS,0.0
20604764034,H & F HERMANOS SOCIEDAD ANÓNIMA CERRADA - H & F HERMANOS S.A.C.,-12.7871234,-74.9713087,ALIMENTOS,653.0
20447978360,CORPORATIVO DJ SOCIEDAD DE RESPONSABILIDAD LIMITADA,-12.048113857142857,-77.03133168571428,ALIMENTOS,0.0
20497803463,MAS VENTAS E.I.R.L.,-12.0611919,-77.1281364,ALIMENTOS,0.0
20541488520,PRODUCTOS AGROINDUSTRIALES DEL CENTRO S.A.C.,-7.1635207,-78.5152431,ALIMENTOS,87.0
20601908183,EDIGIS S.A.C.,-6.8065479,-79.8381266,ALIMENTOS,0.0
20511122458,DIGITAL 'X' RAY S.A.C.,-11.8709563,-77.1207996,MATERIAL Y EQUIPO MEDICO,0.0
20605918205,GRUPO RCH E.I.R.L.,-12.0562296,-77.1309786,"OBRAS, CONSTRUCCIONES Y CONSULTORIAS",0.0
20603407343,INVERSIONES ÑAÑITA E.I.R.L.,-4.9104807,-80.6812912,ALIMENTOS,230.0
20557571940,IMPORTADORA GEMALAB S.A.C.,-12.048462731328321,-77.06592526691729,MATERIAL Y EQUIPO MEDICO,0.0
20482511377,TIENDA COMERCIAL JOSE ANTONIO E.I.R.L.,-13.5213053,-71.9888408,ALIMENTOS,0.0
20568867531,PROVEEDOR DE ALIMENTOS EN GENERAL SOCIEDAD ANONIMA CERRADA,-16.4173031,-71.5336339,ALIMENTOS,0.0
20489377561,NEGOCIOS VILLANUEVA EMPRESA INDIVIDUAL DE RESPONSABILIDAD LIMITADA,-13.0104193,-74.17507,ALIMENTOS,179.0
20602116612,MILUSA SOCIEDAD ANONIMA CERRADA-MILUSA S.A.C.,-11.9459499,-76.7105518,ALIMENTOS,0.0
20501543277,ALKOFARMA E.I.R.L.,-12.0228238,-77.07357,MATERIAL Y EQUIPO MEDICO,0.0
20489362024,MULTISERVI PROSEVIN E.I.R.L.,-9.9390679,-76.24952090871727,PROD. ASEO Y LIMPIEZA,572.0
20486764997,GRUPO SALGUE E.I.R.L.,-18.0192774,-70.255108,MATERIAL Y EQUIPO MEDICO,0.0
20602197795,BUSINESS EL ANGEL E.I.R.L.,-11.9681819,-77.0044033,ALIMENTOS,0.0
20604259194,INGENIERIA CIVIL G & F S.A.C.,-8.1019746,-79.0422055,ALIMENTOS,0.0
20573002645,GRUPO BERMUDEZ SOCIEDAD ANONIMA CERRADA,-12.0374604,-77.0602138,ALIMENTOS,0.0
20603594771,AGROINDUSTRIAS C&Z SEÑOR DE QOYLLORRITY EMPRESA INDIVIDUAL DE RESPONSABILIDAD LIMITADA,-11.9869307,-77.0522077,ALIMENTOS,0.0
20542725703,AGROINCA S.A.C.,-11.9288601,-77.0393274,ALIMENTOS,0.0
20480650825,AGRONEGOCIOS & CIA S.A.C.,-12.0456777,-77.1026289,ALIMENTOS,0.0
20602032320,INVERSIONES PROALMEQ SOCIEDAD ANONIMA CERRADA,-13.522919,-71.9918787,ALIMENTOS,0.0
20408104123,INVERSIONES TOMS S.R.L.,-12.0691242,-77.0006234,ALIMENTOS,0.0
20603608616,JLOZINGS CONTRATISTAS GENERALES S.A.C.,-11.1066526,-77.5822279,ALIMENTOS,0.0
20602767761,CORPORACION BEE O S.A.C.,-15.8331908,-70.0187199,MATERIAL Y EQUIPO MEDICO,0.0
20572116795,GRUPO ECOLOGICO LAMAS SOCIEDAD ANONIMA CERRADA,-11.9666512,-77.0080947,ALIMENTOS,132.0
20600452984,INVERSIONES AMERICAN BOY E.I.R.L,-11.9844467,-77.0547416,ALIMENTOS,894.0
20604235783,PRODUCTORA Y COMERCIALIZADORA DE SEMILLAS GROUP CELIS S.A.C.,-7.1807029,-78.4979823,ALIMENTOS,0.0
20407077785,MISTR S.A.,-9.2936102,-75.9997631,ALIMENTOS,0.0
20407846916,'NEGOCIACIONES LUCILA' SOCIEDAD ANONIMA CERRADA,-9.5271654,-77.5313345,ALIMENTOS,12813.0
20534978619,JACSONI E.I.R.L.,-18.0932426,-70.2505789,MATERIAL Y EQUIPO MEDICO,0.0
20528330780,INVERSIONES DON SHESHA E.I.R.L.,-12.0458969,-77.1126675,ALIMENTOS,0.0
20600394011,MEDIC HML E.I.R.L.,-12.0433462,-77.1226506,MATERIAL Y EQUIPO MEDICO,1510.0
20605451331,MULTISERVICIOS LAKSHMI E.I.R.L.,-11.9747133,-77.0041751,MATERIAL Y EQUIPO MEDICO,857.0
20450456927,REPRESENTACIONES Y DISTRIBUCIONES SAAVEDRA S.R.L.,-5.2003609,-80.6217593,ALIMENTOS,0.0
20559775933,COMERCIALIZADORA E INVERSIONES WPC S.A.C,-16.445063,-71.5195598,ALIMENTOS,0.0
20493311779,EMPRESA DE CONSTRUCCIONES Y SERVICIOS EL ORIENTE S.R.L.,-12.0594203,-77.1257478,MATERIAL Y EQUIPO MEDICO,166.0
20455009856,REDIJUA S.R.L.,-5.1804021,-80.6113489,ALIMENTOS,0.0
20605795278,JF E HIJOS DISTRIBUCIONES SOCIEDAD ANONIMA CERRADA,-15.4892138,-70.1437472,ALIMENTOS,0.0
20532040826,INVERSIONES REFAMA S.A.C.,-8.134874100000001,-79.05209009854508,ALIMENTOS,2166.0
20531321970,ALMACENES DE LA SELVA S.A.C.,-11.9666512,-77.0080947,ALIMENTOS,0.0
20601786355,IQ APOR E.I.R.L.,-8.389524,-74.538139,PROD. ASEO Y LIMPIEZA,223.0
20564081001,REPRESENTACIONES CCASANI EMPRESA INDIVIDUAL DE RESPONSABILIDAD LIMITADA - REPRESENTACIONES CCASANI,-18.0275035,-70.2654353,ALIMENTOS,0.0
20514713694,GRUPO SANTA ANA SOCIEDAD ANONIMA CERRADA,-12.0605492,-76.9786867,ALIMENTOS,0.0
20573307594,MULTISERVICIOS GRUPO ESPIRITU SOCIEDAD ANONIMA CERRADA,-16.429738,-71.4977675,ALIMENTOS,0.0
20102314264,COMERCIAL AGROSUO SA,-8.3771113,-74.5500002,ALIMENTOS,0.0
20530880746,AGROINDUSTRIA LA PERLA DEL HUASCARAN S.R.L.,-9.1512227,-76.9911774,ALIMENTOS,0.0
20513564113,FIDELAC SOCIEDAD COMERCIAL DE RESPONSABILIDAD LIMITADA FIDELAC S.R.L.,-11.1066526,-77.5822279,ALIMENTOS,0.0
20117354793,QUINTO DAMIAN HERMANOS S.A.C,-12.079664836363637,-76.99135752121212,ALIMENTOS,0.0
20605092641,LUDIVA MEDICAL S.A.C.,-11.8556251,-77.0393039,MATERIAL Y EQUIPO MEDICO,0.0
20574725292,NEGOCIACIONES HTA MORALES S.A.C,-12.9362506,-74.2535703,ALIMENTOS,0.0
20512900896,J.C MEDICAL SUPPLIES SOCIEDAD ANONIMA CERRADA,-18.0142951,-70.2426513,MATERIAL Y EQUIPO MEDICO,0.0
20518745876,LABSYSTEMS S.A.C,-5.0967803,-81.1099832,MATERIAL Y EQUIPO MEDICO,0.0
20601191289,VF INTERNATIONAL MEDICAL TECHNOLOGY SOCIEDAD ANONIMA CERRADA,-12.041615720408164,-77.09772088979592,MATERIAL Y EQUIPO MEDICO,0.0
20602758908,EMPRESA DISTRIBUIDORA KAREN EMPRESA INDIVIDUAL DE RESPONSABILIDAD LIMITADA,-12.0890408,-75.1963718,ALIMENTOS,6.0
20528115463,COMERCIALIZADORA CHARITO EIRL,-12.073116344444445,-77.16270441414142,ALIMENTOS,0.0
20506268738,BIOBYSA SOCIEDAD ANONIMA CERRADA,-12.0465329,-77.0396051,MATERIAL Y EQUIPO MEDICO,0.0
20536957368,INVERSIONES MECHA S.A.C.,-13.6517915,-73.9534493,ALIMENTOS,262.0
20480099568,W & C SAN JUAN ALMACENES S.A.C.,-5.7141161,-78.8046043,ALIMENTOS,0.0
20604436142,EMPRESA DE ALIMENTACION SALUDABLE CHESMAR SOCIEDAD ANONIMA CERRADA - CHESMAR S.A.C.,-13.536386,-71.9803792,ALIMENTOS,3065.0
20603942362,CORPORACION ANDISUR S.A.C.,-13.1350853,-74.2313112,ALIMENTOS,0.0
20490765507,MINIMARKET SAN JUAN EMPRESA INDIVIDUAL DE RESPONSABILIDAD LIMITADA,-12.0735363,-75.211676,ALIMENTOS,529.0
20527905738,INDUSTRIA ALIMENTICIA IMPERIAL E.I.R.L.,-11.8425574,-77.1224831,ALIMENTOS,0.0
20517372294,"SERVITEBCA PERÚ, SERVICIO DE TRANSFERENCIA ELECTRÓNICA DE BENEFICIOS Y PAGOS S.A.",-12.09782045,-76.97239040309839,OTROS SERVICIOS,0.0
20425890558,PIEDRANGEL S.A.C.,-12.1178994,-76.9663236,OTROS SERVICIOS,0.0
20527234850,L & H REPRESENTACIONES S.A.C.,-6.2297337,-77.8625456,ALIMENTOS,0.0
20509411671,MP INSTITUCIONAL SOCIEDAD ANONIMA CERRRADA,-12.0979595,-77.0365932,PROD. ASEO Y LIMPIEZA,0.0
20528224831,INDUSTRIA MILILAC E.I.R.L.,-3.7319287,-73.258755,ALIMENTOS,0.0
20601057302,INVERSIONES Y SERVICIOS BRIFABRI E.I.R.L.,-9.0929358,-78.56274,MATERIAL Y EQUIPO MEDICO,0.0
20489620171,CONSORCIO DOMIX PERU SOCIEDAD COMERCIAL DE RESPONSABILIDAD LIMITADA,-12.1121692,-76.9959316,ALIMENTOS,0.0
20494556589,"""INVERSIONES SAN JOSE"" E.I.R.L.",-7.1887833,-76.73622928641777,ALIMENTOS,0.0
20601088101,INVERSIONES ANDINA DEL NORTE E.I.R.L.,-12.082068,-77.0087935,OTROS SERVICIOS,0.0
20604559643,JM  & WA NEGOCIOS CORPORATIVOS E.I.R.L.,-12.0578902,-77.0392477,MATERIAL Y EQUIPO MEDICO,178419.0
20604263612,CUENCA DEL RIO MAYO E.I.R.L.,-8.2242382,-78.9757746,ALIMENTOS,0.0
20493201329,COMERCIAL IRMITA S.A.C.,-12.0194751,-77.098893,ALIMENTOS,0.0
20528184431,REPRESENTACIONES MELISA E.I.R.L.,-8.3758722,-74.5362306,ALIMENTOS,0.0
20567199461,CONSORCIO WENDY'S E.I.R.L.,-12.0491166,-77.1323302,ALIMENTOS,0.0
20568218648,MEGACENTRO CHIPANA E.I.R.L.,-11.258751,-74.6400146,ALIMENTOS,0.0
20568825706,GRUPO COMERCIAL NILBRYAN S.A.C.,-11.9427016,-77.0464004,ALIMENTOS,0.0
20563850966,INVERSIONES SHEKHINA EMPRESA INDIVIDUAL DE RESPONSABILIDAD LIMITADA-INVERSIONES SHEKHINA E.I.R.L,-8.1049557,-79.0237277,ALIMENTOS,0.0
20494498104,EMPRESA DE TRANSPORTES DE CARGA EN GENERAL Y SERVICIOS MULTIPLES FLORES S.A.C.,-12.7672128,-73.658433,ALIMENTOS,66446.0
20521982081,INVERSIONES HIKARI S.A.C.,-11.838167,-77.167473,MATERIAL Y EQUIPO MEDICO,0.0
20600549953,NEGOCIACIONES M & KN S.A.C.,-14.067097,-75.7257852,ALIMENTOS,0.0
20603976275,CORPORACION VALEIVA EMPRESA INDIVIDUAL DE RESPONSABILIDAD LIMITADA,-12.0001614,-76.9957065,ALIMENTOS,1430.0
20601239290,NRC CORPORACIONES EMPRESA INDIVIDUAL DE RESPONSABILIDAD LIMITADA - NRC CORPORACIONES E.I.R.L.,-8.3758427,-74.5475372,ALIMENTOS,1420.0
20602634061,COMERCIO Y SERVICIOS VEGA S.R.L.,-12.0630378,-77.1313381,ALIMENTOS,0.0
20542494973,MARYNUR E.I.R.L.,-11.9600886,-77.0552145,ALIMENTOS,0.0
20526373171,INVERSIONES MIVENA S.R.L.,-11.7276086,-76.06902593967638,ALIMENTOS,0.0
20570729030,COMERCIALIZADORA Y SERVICIOS ALDAIR S.R.L.,-8.3819266,-74.5294396,ALIMENTOS,46.0
20604194378,INVERSIONES PAJUELO HERMANOS E.I.R.L.,-5.0967803,-81.1099832,ALIMENTOS,0.0
20602286666,AGROHILMART S.A.C.,-16.3436884,-71.5401597,ALIMENTOS,0.0
20403667413,COMERCIAL H & U EIRL,-13.5213053,-71.9888408,ALIMENTOS,662.0
20600923162,VALENTINA IMPORT & ASOCIADOS S.A.C.,-12.0231902,-77.109061,MATERIAL Y EQUIPO MEDICO,0.0
20604979065,MULTISERVICIOS MYG E.I.R.L.,-12.0228421,-77.1092915,ALIMENTOS,0.0
20492092313,MAKRO SUPERMAYORISTA S.A.,-12.1493985,-77.00899998471218,ALIMENTOS,0.0
20601020247,EL DORADO GROUP E.I.R.L.,-8.08994,-79.0283049,ALIMENTOS,0.0
20555401010,PROCESADORA DE ALIMENTOS E INVERSIONES SARITA COLONIA S.A.C. - ALINPROSAC S.A.C.,-15.0536565,-70.2796349,ALIMENTOS,135.0
20601230691,DISTRIBUIDORA EN GENERAL LUGA SOCIEDAD ANONIMA CERRADA,-16.3878515,-71.5245654,ALIMENTOS,0.0
20600723082,CORPORACION QUISBLAN ASOCIADOS EMPRESA INDIVIDUAL DE RESPONSABILIDAD LIMITADA,-12.9295634,-74.2520783,ALIMENTOS,0.0
20541422341,INVERSIONES ZASUDE S.R.L.,-12.0659654,-77.077292,ALIMENTOS,0.0
20603720351,COMPAÑIA CAVAL SOCIEDAD ANONIMA CERRADA - CIA. CAVAL S.A.C.,-13.717368,-76.1471827,ALIMENTOS,0.0
20502510470,EMP.DE CONSERVAS DE PESCADO BELTRAN EIRL,-12.082068,-77.0087935,ALIMENTOS,0.0
20502257987,CORPORACION VEGA S.A.C.,-12.0960025,-77.0365206,ALIMENTOS,0.0
20516935317,GLOBAL SERVICIO INTEGRAL MEDICO SOCIEDAD ANONIMA,-11.9426485,-76.9805923,LIMPIEZA Y FUMIGACIÓN,0.0
20600262930,DISTRIBUIDORA INDUSTRIA ALIMENTARIA BENNY S.R.L.,-16.4202752,-71.5381622,ALIMENTOS,319.0
20563988992,CORPORACION VICTORIA PERU SOCIEDAD ANONIMA CERRADA-CORVIPER SAC,-12.8652815,-72.6954074,ALIMENTOS,0.0
20601126452,CORPORACION Y MULTISERVICIOS MIRUNA S.R.L.,-7.1671184,-78.5115606,ALIMENTOS,0.0
20454428022,REPRESENTACIONES MONTES S.R.L.-MONTES S. R.L.,-12.0615056,-77.1354034,ALIMENTOS,0.0
20553852979,CORPORACION SUNSET CLOUDS S.A.C.,-8.38812,-74.5349832,ALIMENTOS,26887.0
20527704759,INVERSIONES GUSTAVO SOCIEDAD ANONIMA CERRADA,-18.0142951,-70.2426513,ALIMENTOS,0.0
20517758991,ALFY MEDICA EIRL,-12.0493725,-75.2504039,MATERIAL Y EQUIPO MEDICO,0.0
20602740278,INDUAMERICA INTERNACIONAL S.A.C.,-12.0979595,-77.0365932,ALIMENTOS,0.0
20603446543,SKY AIRLINE PERU S.A.C.,-12.0878777,-76.9730872,OTROS SERVICIOS,0.0
20486886081,A  &  N  DISTRIBUIDORES SOCIEDAD ANONIMA CERRADA,-13.7938355,-70.4720566,ALIMENTOS,0.0
20600439678,COMPAÑIA PESQUERA SER SUR E.I.R.L.,-13.5268555,-71.9477188,ALIMENTOS,0.0
20529289236,TRANSPORTES Y CONSTRUCTORA LUCHIN EMPRESA INDIVIDUAL DE RESPONSABILIDAD LIMITADA,-9.9366294,-76.2483179,ALIMENTOS,197.0
20527653232,EMPRESA TRANSPORTES MAROSUR EMPRESA INDIVIDUAL DE RESPONSABILIDAD LIMITADA,-12.202098,-77.0205039,ALIMENTOS,181.0
20573149239,CONSORCIO SAR S.R.L,-7.1543996,-78.5122685,ALIMENTOS,0.0
20601350387,MARIA DOLORES CHUQUIMANTARI E.I.R.L.,-12.0001614,-76.9957065,ALIMENTOS,0.0
20398527993,QUIMICOS Y EQUIPOS DEL NORTE S.R.L.,-11.9988177,-77.121487,PROD. ASEO Y LIMPIEZA,0.0
20600108931,CORPORACION KAPEM S.A.C.,-11.4533531,-76.6247129,MATERIAL Y EQUIPO MEDICO,0.0
20527673772,MULTISERVICIOS HUAMANGA E.I.R.L.,-8.38812,-74.5349832,ALIMENTOS,0.0
20448433405,AGRONEGOCIOS CHELA SOCIEDAD COMERCIAL DE RESPONSABILIDAD LIMITADA,-11.9666512,-77.0080947,ALIMENTOS,354.0
20601034451,CORPORACION JMEDICAL E.I.R.L.,-18.0142951,-70.2426513,PROD. ASEO Y LIMPIEZA,0.0
20393801965,MEDICAL WORLD  S.A.C.,-8.3807087,-74.5335991,MATERIAL Y EQUIPO MEDICO,0.0
20600814703,INVERSIONES 2BH S.R.L,-13.714781,-76.1546147,ALIMENTOS,0.0
20603762445,OSEGVA GRUPO OMER S.R.L.,-12.0809341,-77.00703622181229,ALIMENTOS,0.0
20271779721,EL SUPER S.A.C.,-6.7663827,-79.8417301,ALIMENTOS,0.0
20452675715,RED MAINQUI S.A.C.,-13.1584181,-74.2184221,ALIMENTOS,0.0
20536727524,COSTEÑO ALIMENTOS S.A.C.,-12.1114638,-77.0281425,ALIMENTOS,0.0
20502503180,NIISA CORPORATION S.A.,-14.0647057,-75.7259984,ALIMENTOS,0.0
20601613728,CENTRO COMERCIAL SELVA PLAZA S.A.C. - CECOSEP S.A.C.,-16.4083713,-71.5192449,ALIMENTOS,0.0
20118848579,COMERCIAL ALVARADO S.R.L.,-12.0372529,-77.0630955,ALIMENTOS,0.0
20495031307,NEGOCIACIONES ROJAS S.A.C.,-16.3935155,-71.5287217,ALIMENTOS,0.0
20605269801,AM & RIOS DISTRIBUIDORES S.A.C.,-11.9917941,-77.1118295,ALIMENTOS,27.0
20529181117,CONSTRUCTORA Y NEGOCIACIONES DAVID EMPRESA INDIVIDUAL DE RESPONSABILIDAD LIMITADA,-12.13945675,-76.95816372893299,ALIMENTOS,0.0
20517945596,COMERCIAL JIMER MICHAEL E.I.R.L.,-5.087765,-81.0953627,ALIMENTOS,0.0
20564248739,MF CORPORATION S.A.C,-13.6538591,-73.3878412,ALIMENTOS,0.0
20600731417,INVERSIONES PAMELA GROUP SOCIEDAD ANONIMA CERRADA - PAMELA GROUP S.A.C.,-12.062787,-77.0435009,ALIMENTOS,0.0
20529252316,INDUSTRIAS ALIMENTARIAS E INVERSIONES CAMACHO'S E.I.R.L,-7.1583449,-78.5208529,ALIMENTOS,0.0
20530884903,CONSTRUCTORA Y SERVICIOS MULTIPLES EL SAMARITANO E.I.R.L.,-16.397266,-71.5684886,ALIMENTOS,0.0
20495157581,CORPORACION K PAMELA E.I.R.L.,-13.1534062,-74.2163737,ALIMENTOS,0.0
20443234510,INDUSTRIAS MOLICUSCO S.A.C.,-12.117726344117093,-77.03392061050378,ALIMENTOS,0.0
20447625289,CORPORACION ALIMENTARIA DE LOS ANDES E.I.R.L.,-15.4716992,-70.1335367,ALIMENTOS,5296.0
20602064728,INVERSIONES CORIB E.I.R.L.,-8.0741779,-79.0510027,ALIMENTOS,0.0
20603491336,SEÑOR DE LOS MILAGROS SECURITY S.A.C.,-11.956991,-77.0521309,OTROS SERVICIOS,0.0
20600190491,PROVEEDORA C Y N SOCIEDAD COMERCIAL DE RESPONSABILIDAD LIMITADA,-12.047367722727365,-77.02948490903603,ALIMENTOS,523.0
20603274149,PROVEEDORES EBENEZER S.A.C.,-8.3904021,-74.5386532,ALIMENTOS,0.0
20555589574,L & M MEDICAL SUPPLIES SOCIEDAD ANONIMA CERRADA,-12.0554541,-77.0573881,MATERIAL Y EQUIPO MEDICO,0.0
20601389283,KAMIC-AYACUCHO INVERSIONES S.R.L.,-16.4027886,-71.5396717,ALIMENTOS,0.0
20495681859,CARRASCO & MURGA EMPRESA INDIVIDUAL DE RESPONSABILIDAD LIMITADA,-3.4277312,-72.7032261,ALIMENTOS,0.0
20534523964,CONSTRUCTORA E INVERSIONES ELVIS S.A.C.,-5.199866,-80.6284051,ALIMENTOS,17.0
20554255826,ADALLE MEDIC S.A.C.,-9.0516376,-78.5890738,OTROS SERVICIOS,1903.0
20603761597,BORKA COMERCIALIZADORA Y SERVICIOS GENERALES S.A.C. - BORKA S.A.C.,-5.1946594,-80.6451977,OTROS BIENES,0.0
20486745691,INDUSTRIA DE ALIMENTOS JUNIN SOCIEDAD ANONIMA CERRADA,-12.1420857,-76.9487506,ALIMENTOS,0.0
20482181482,COMERCIAL PROVEEDURIA  YESICA S.R.L.,-12.0594203,-77.1257478,ALIMENTOS,0.0
20133864637,A.M.T. REPRESENTACIONES SRL,-12.0705516,-77.0551125,MATERIAL Y EQUIPO MEDICO,1145.0
20565707648,GRUPO INDUSTRIAL ANDINA S.A.C.,-11.7276086,-76.06902593967638,ALIMENTOS,0.0
20601459834,FERAMAR S.R.L.,-16.2460164,-69.093761,ALIMENTOS,0.0
20603256388,CORPORACIÓN INDUSTRIAL Y CONSTRUCCION CAXPER E.I.R.L.,-12.0197718,-77.1010901,ALIMENTOS,0.0
20523108493,INVERSIONES KATHYMAR S.A.C.,-12.0459317,-76.9533041,ALIMENTOS,0.0
20203769963,LA GENOVESA S.A.C.,-14.0446578,-75.7434657,ALIMENTOS,0.0
20529130555,EMPRESA NIETO ANTARES SOCIEDAD ANÒNIMA CERRADA,-12.098396,-75.2117264,ALIMENTOS,635.0
20542026520,TRANSPORTE Y COMERCIO RR E.I.R.L.,-9.5360807,-77.5319694,ALIMENTOS,0.0
20555946865,RESIDENCIAL UNICACHI NORTE S.A.,-16.4078596,-71.5192012,ALIMENTOS,0.0
20600872711,MULTIMARCAS PALCA E.I.R.L,-12.0418806,-76.9482449,ALIMENTOS,0.0
20528944508,"""CONSTRUCTORA M Y C EMPRESA INDIVIDUAL DE RESPONSABILIDAD LIMITADA""",-13.7293715,-76.2014128,ALIMENTOS,0.0
20605697551,NEGOCIOS Y SERVICIOS ESTRELLA DE BELEN S.A.C.,-7.1628465,-78.5198184,ALIMENTOS,0.0
20600947606,TOTAL INDUSTRIAS BLAS EMPRESA INDIVIDUAL DE RESPONSABILIDAD LIMITADA,-7.1583449,-78.5208529,ALIMENTOS,0.0
20404342593,COMERCIAL EL SOL E.I.R.L.,-8.3894355,-74.5334309,ALIMENTOS,0.0
20600085922,LINK CENTER SOCIEDAD ANONIMA CERRADA,-15.4795672,-70.1547114,ALIMENTOS,130.0
20603228406,DVM DISTRIBUCIONES E.I.R.L.,-5.189344,-80.6438849,ALIMENTOS,160.0
20254806278,M & F TRADING SOCIEDAD COMERCIAL DE RESPONSABILIDAD LIMITADA,-12.048751,-77.128398,MEDICAMENTOS,0.0
20602882340,ASOCIACION DE PRODUCTORES AGROPECUARIOS CHACHAPOYAS,-6.232236,-77.8651334,ALIMENTOS,66.0
20602334393,CORPORACION SALAS & GALLEGOS EMPRESA INDIVIDUAL DE RESPONSABILIDAD LIMITADA,-11.1085413,-77.5864107,ALIMENTOS,0.0
20600244737,ROYAL KERKUS CONSTRUCTOR S.A.C.,-13.4381488,-76.1416989,ALIMENTOS,42.0
20604707189,SOMENIC S.A.C.,-11.8379973,-77.1681826,OTROS SERVICIOS,0.0
20601720494,GRUPO J Y M ALIMENTOS EMPRESA INDIVIDUAL DE RESPONSABILIDAD LIMITADA,-9.916462,-76.2365018,ALIMENTOS,0.0
20604300585,CORPORACION DAKRI E.I.R.L,-13.1769673,-74.2204061,ALIMENTOS,0.0
20600782518,APLEZA CONTRATISTAS GENERALES S.A.C - APLEZA S.A.C.,-4.2232917,-73.4545802,ALIMENTOS,87.0
20454568207,ALIMENTO PROCESADO INSTANTANEO S.A.C.,-16.4053828,-71.4972311,ALIMENTOS,0.0
20602403867,POLYSTAR PERU S.A.C.,-11.8411869,-77.1218614,MATERIAL Y EQUIPO MEDICO,0.0
20489690382,SERVICIOS MULTIPLES HAZ PERU SOCIEDAD COMERCIAL DE RESPONSABILIDAD LIMITADA,-12.0696669,-76.9590581,ALIMENTOS,0.0
20537672901,D Y D PROYECTOS MULTIPLES Y SERVICIOS GENERALES S.A.C.,-6.0761659,-78.671988,ALIMENTOS,0.0
20565499867,WEB SYSTEMS SOLUTIONS S.A.C.,-12.101769449999999,-76.9715659,OTROS SERVICIOS,0.0
20574611360,GRUPO LESKA IMPORT E.I.R.L.,-11.9474883,-77.0503961,ALIMENTOS,0.0
20129568942,DISTRIBUIDORA DE PRODUCTOS Y MATERIALES DIZA S.R.L.,-11.956991,-77.0521309,ALIMENTOS,0.0
20539383290,BUSTAMANTE Y MALAGA CONSTRUCCIONES EN DRYWALL S.A.C.,-13.1659058,-74.2157573,"OBRAS, CONSTRUCCIONES Y CONSULTORIAS",0.0
20517540341,CORPORACION PRODUCTIVA SOCIEDAD ANONIMA CERRADA,-15.4795672,-70.1547114,ALIMENTOS,0.0
20602832466,EMPRESA COMERCIAL MINERSA S.R.L.,-12.1886272,-76.9974603,ALIMENTOS,0.0
20600113764,AGRO INDUSTRIAS EL CHAQUIPURO E.I.R.L.,-12.1121692,-76.9959316,ALIMENTOS,3223.0
20568336179,GRUPO DE COMERCIO DEL CENTRO E.I.R.L.,-12.074861,-77.0299678,ALIMENTOS,0.0
20604537097,CONSTRUCCIONES DIBA PERU E.I.R.L.,-18.0343012,-70.2739264,ALIMENTOS,1639.0
20228541355,COMERCIAL AYDE EIRL,-17.1912542,-70.9346975,ALIMENTOS,0.0
20600950623,CORPORACION TONGOD E.I.R.L.,-12.0065839,-77.0977615,ALIMENTOS,0.0
20491801281,SUPERMERCADOS CASTOPE S.R.L,-12.041246314285715,-77.09573096326531,ALIMENTOS,0.0
20569240434,DISTRIBUCIONES Y REPRESENTACIONES CATALUNYA E.I.R.L.,-12.1069804,-77.0088518,ALIMENTOS,0.0
20604475903,NEGOCIOS CRONOS E.I.R.L.,-18.0546514,-70.2548022,ALIMENTOS,0.0
20570894316,NOR LAC GROUP DEL PERU S.A.C.,-11.7436295,-76.6495089,ALIMENTOS,4032.0
20605189807,CONTRERAS E.I.R.L,-5.1759888,-80.6320697,ALIMENTOS,0.0
20600167431,SERGEPAR E.I.R.L.,-12.041979,-77.124432,ALIMENTOS,173.0
20600685750,TRANSPORTES Y DISTRIBUCIONES G & M E.I.R.L.,-12.0422111,-77.1032563,ALIMENTOS,5444.0
20603569513,INVERSIONES Y SERVICIOS MONTE RONA S.A.C.,-13.1404537,-74.2275716,ALIMENTOS,0.0
20600190289,COMERCIAL ZORAIDA E.I.R.L.,-12.04821473030303,-77.03014299696969,ALIMENTOS,0.0
20604437904,INVERSIONES N&C GAMANCHO EMPRESA INDIVIDUAL DE RESPONSABILIDAD LIMITADA,-11.8340236,-77.1354538,ALIMENTOS,0.0
20480372914,FULL TRADE EIRL,-6.7663827,-79.8417301,ALIMENTOS,0.0
20530116671,NEGOCIOS DIDO EMPRESA INDIVIDUAL DE RESPONSABILIDAD LIMITADA,-11.8656397,-77.0764823,ALIMENTOS,228.0
20393362601,COMERCIAL ISABEL E.I.R.L.,-12.0456777,-77.1026289,ALIMENTOS,239.0
20602682928,D´ IMPORT AMAZONAS S.A.C.,-8.3772434,-74.5269263,ALIMENTOS,0.0
20602567100,D & M INVERSIONES E.I.R.L.,-7.1534177,-78.5229059,ALIMENTOS,0.0
20601877636,ROSEL CORP S.A.C.,-12.0761712,-77.0574554,ALIMENTOS,0.0
20601617022,CORPORACION BEGANX S.A.C.,-15.8553182,-70.0125379,ALIMENTOS,143.0
20600450051,COMERCIALIZADORA DE ABARROTES JRA S.A.C.,-11.8377634,-77.1268844,ALIMENTOS,0.0
20479513300,AGA REPRESENTACIONES SAC,-5.7105904,-78.8032221,ALIMENTOS,0.0
20603709102,SERVICIOS GENERALES PINEDO & SOPLA E.I.R.L.,-15.695797,-70.605136,ALIMENTOS,135.0
20602596363,COMERCIAL FIOVELS S.A.C.,-12.0312294,-77.0172211,ALIMENTOS,0.0
20484095800,COMERCIAL ERICK EIRL,-11.9989746,-77.1188543,ALIMENTOS,0.0
20604125031,GRUPO AFEMAP SOCIEDAD ANONIMA CERRADA,-9.2968919,-76.0006405,ALIMENTOS,0.0
20605970169,DROGUERIA IMPORTADORA DISTRIMEDICAL E.I.R.L.,-13.161557,-74.2391106,OTROS BIENES,0.0
20411217184,EMP. TRANSP. Y COMERC. LEON DE JUDA EIRL,-7.1662014,-78.5079939,ALIMENTOS,0.0
20604249733,ATTIX MOTORS SOCIEDAD ANONIMA CERRADA,-12.0691009,-76.954073,ADQUISICIÓN Y ALQUILER DE VEHÍCULOS,0.0
20440436618,TIENDAS TIA S.A.C.,-12.0685651,-77.1134682,ALIMENTOS,0.0
20448605893,ALMACENES FARMACEUTICOS SOCIEDAD ANONIMA CERRADA,-3.5606269,-80.4591249,MATERIAL Y EQUIPO MEDICO,0.0
20600126661,INVERSIONES Y REPRESENTACIONES ALIENS E.I.R.L.,-17.189396,-70.9315382,"OBRAS, CONSTRUCCIONES Y CONSULTORIAS",0.0
20601770076,"REPRESENTACIONES, DISTRIBUCIONES, CONTRATISTAS GENERALES AGUIMAY S.A.C.",-9.9835439,-76.6921909,ALIMENTOS,341.0
20450449718,AYBARSA CONSULTORES E.I.R.L.,-8.371111,-74.5442011,"OBRAS, CONSTRUCCIONES Y CONSULTORIAS",0.0
20484193721,DISTRIBUIDORA KRISALF EMPRESA INDIVIDUAL DE RESPONSABILIDAD LIMITADA,-16.4322092,-71.52337,ALIMENTOS,0.0
20605720782,PIRE S.R.L.,-16.4069359,-71.530647,ALIMENTOS,0.0
20603709722,LKJ HERMANOS S.A.C.,-6.559173,-78.6519028,ALIMENTOS,704.0
20603554028,NEGOCIACIONES LIAN YAEL E.I.R.L.,-6.76506,-79.8541558,ALIMENTOS,0.0
20482726730,DISTRIBUIDORA Y COMERCIALIZADORA V & R S.A.C.,-12.029772,-77.0559048,ALIMENTOS,0.0
20479375829,ALMACENES DEL ORIENTE SAN IGNACIO DE LOYOLA SCRL,-5.6989334,-78.807257,ALIMENTOS,0.0
20511587175,COMPAÑIA AGROINDUSTRIAL SANTA ANA S.A.C. COMAGROSA,-11.1143414,-77.59447818225651,ALIMENTOS,0.0
20568365195,SERVICIOS MULTIPLES MISHEL EMPRESA INDIVIDUAL DE RESPONSABILIDAD LIMITADA,-12.0586771,-77.1280796,ALIMENTOS,0.0
20600512626,BUENAS OBRAS S.R.L.,-6.2297337,-77.8625456,ALIMENTOS,0.0
20115190165,DISTRIBUIDORA ABARROTERA DEL SUR EIRL,-16.4079783,-71.540479,ALIMENTOS,0.0
20512450165,INVERSIONES ALDANA S.A.C.,-12.072062645454546,-77.16438578383838,ALOJAMIENTO TEMPORAL Y ALIMENTACIÓN,0.0
20136957253,CORPORACION EL GOLF S.A.,-11.8258195,-77.1332585,ALOJAMIENTO TEMPORAL Y ALIMENTACIÓN,0.0
20462041587,EMP SERVIC TURISTICOS COLON SAC,-12.0606215,-77.1327233,ALOJAMIENTO TEMPORAL Y ALIMENTACIÓN,0.0
20551529933,HOTEL EL TAMBO S.A.C.,-12.12513425,-77.02713752209766,ALOJAMIENTO TEMPORAL Y ALIMENTACIÓN,0.0
20303972821,INVERSIONES BRADE S.A,-12.039841959183674,-77.09645148571428,ALOJAMIENTO TEMPORAL Y ALIMENTACIÓN,0.0
20604690685,LUOXO S.A.C.,-11.8258195,-77.1332585,ALOJAMIENTO TEMPORAL Y ALIMENTACIÓN,20657.0
20600635086,MARAGOGI S.A.C.,-12.094405049999999,-77.05691755000001,ALOJAMIENTO TEMPORAL Y ALIMENTACIÓN,0.0
20505670443,NESSUS HOTELES PERU S.A.,-12.1220265,-77.0266065044512,ALOJAMIENTO TEMPORAL Y ALIMENTACIÓN,0.0
20303368877,FIGTUR S.A.,-12.09725405,-77.0113694,ALOJAMIENTO TEMPORAL Y ALIMENTACIÓN,0.0
20110545798,EDIFICIOS Y CONST. SANTA PATRICIA S.A.,-12.1247177,-77.0311619,ALOJAMIENTO TEMPORAL Y ALIMENTACIÓN,0.0
20509492221,AMERICA SAM S.A.C.                                                                                  ,-12.0246277,-75.1899021,ADQUISICIÓN Y ALQUILER DE VEHÍCULOS,405.0
20490212249,EMPRESA INVERSIONES SANDRA S.A.C.,-18.0238843,-70.2650826,ALIMENTOS,0.0
20393544628,COMERCIAL LISA  E.I.R.L.,-16.441482,-71.5795884,ALIMENTOS,0.0
20565514416,FIX CORPORATION E.I.R.L.,-12.0048125,-77.1017788,ALIMENTOS,0.0
20477208771,SERVICIOS SEÑOR DE LA HUMILDAD S.A.C,-5.209094,-80.6358504,ALIMENTOS,0.0
20531751559,SERVICIOS GENERALES DIWAR E.I.R.L.,-16.3878515,-71.5245654,ALIMENTOS,0.0
20505719396,Q-MEDICAL S.A.C,-12.0554541,-77.0573881,MATERIAL Y EQUIPO MEDICO,0.0
20541138626,INVERSIONES Y SERVICIOS MARIAL E.I.R.L.,-3.7475962,-73.2490197,MATERIAL Y EQUIPO MEDICO,0.0
20601504694,NEGOCIOS JIMY EMPRESA INDIVIDUAL DE RESPONSABILIDAD LIMITADA - NEGOCIOS JIMY E.I.R.L.,-12.2067868,-76.96494758572699,ALIMENTOS,0.0
20605379941,DISTRIBUIDORA CUTIPA S.R.L.,-13.1859,-74.0247,ALIMENTOS,737.0
20498445650,LA MEJOR S.A.C.,-12.0611919,-77.1281364,ALIMENTOS,0.0
20604374686,PRADERA GREEN EMPRESA INDIVIDUAL DE RESPONSABILIDAD LIMITADA - PRADERA GREEN E.I.R.L.,-9.0961609,-76.0123596,ALIMENTOS,89.0
20604947333,DEYCON CONTRATISTAS GENERALES SOCIEDAD ANONIMA CERRADA - DEYCON CONTRATISTAS GENERALES S.A.C.,-15.4989324,-70.1465486,ALIMENTOS,0.0
20568596839,NEGOCIACIONES AMPAHU S.A.C.,-16.3935155,-71.5287217,ALIMENTOS,0.0
20604750009,CREARE ARQUITECTOS S.R.L.,-15.823387,-69.9982725,"OBRAS, CONSTRUCCIONES Y CONSULTORIAS",0.0
20504575919,IMPORTACIONES ALPES PERU SOCIEDAD ANONIMA CERRADA,-12.0939995,-76.9832034,OTROS BIENES,5154.0
20604994773,NORFRANC S.A.C.,-12.0787163,-77.0912846,ALIMENTOS,2418.0
20605292331,MAGENTA MEDICA E.I.R.L.,-12.0001614,-76.9957065,MATERIAL Y EQUIPO MEDICO,0.0
20392545817,VERBESSERN LOGISTICA Y APROVISIONAMIENTO  S.A.C.,-18.0359936,-70.2735482,MATERIAL Y EQUIPO MEDICO,0.0
20605695265,VERLES PHARMA S.A.C.,-12.0015187,-77.1164174,MATERIAL Y EQUIPO MEDICO,0.0
20109161609,ROKER PERU SA,-12.0402762,-77.0841647,MATERIAL Y EQUIPO MEDICO,0.0
20504312403,NIPRO MEDICAL CORPORATION SUCURSAL DEL PERU,-12.0452482,-77.0456287,MATERIAL Y EQUIPO MEDICO,0.0
20519131243,YARGO INTERNACIONAL E.I.R.L. - Y.I. E.I.R.L.,-12.0112064,-77.099579,MATERIAL Y EQUIPO MEDICO,0.0
20490012665,ASOCIACION AGRO GANADERO VALLE VERDE,-5.6989334,-78.807257,ALIMENTOS,0.0
20527954275,INVERSIONES APROSUR E.I.R.L.,-8.3758427,-74.5475372,ALIMENTOS,216.0
20600275713,INVERSIONES DIARAHEC JR SOCIEDAD ANONIMA CERRADA,-11.9142562,-77.1171276,ALIMENTOS,3220.0
20251897957,COSERSA SOCIEDAD DE RESPONSABILIDAD LIMITADA,-12.23804975,-76.7838627203846,OTROS SERVICIOS,15.0
20600231139,INVERSIONES AFOCAF S.A.C. - AFOCAF S.A.C.,-12.0476699,-77.002059,ALIMENTOS,0.0
20604922608,CONSTRUCCIONES Y SERVICIOS GENERALES LUNIC SOCIEDAD ANONIMA CERRADA - CSLUNIC S.A.C.,-8.3819266,-74.5294396,MATERIAL Y EQUIPO MEDICO,0.0
20131529181,SEGURINDUSTRIA SA,-12.052365735353536,-77.03470905555555,OTROS BIENES,0.0
20348511824,SAMITEX SA,-12.1759463,-76.99758656015453,MATERIAL Y EQUIPO MEDICO,0.0
20480762976,INVERSIONES ANSA INGENIERIA Y CONSTRUCCION S.A.C.,-6.9110469,-79.8662603,ALIMENTOS,189.0
20559879801,DISTRIBUCIONES Y TRANSPORTES LUZ CLARITA  S.A.C.,-13.423533249999998,-76.1356259463646,ALIMENTOS,2366.0
20600787471,MEGA INVERSIONES LUCHANO EMPRESA INDIVIDUAL DE RESPONSABILIDAD LIMITADA,-9.916462,-76.2365018,ALIMENTOS,0.0
20487703983,ESTACION DE SERVICIOS PICORITO EMPRESA INDIVIDUAL DE RESPONSABILIDAD LIMITADA,-5.7572825,-78.4352384,OTROS BIENES,0.0
20600032756,M&F TECNOLOGIA Y DESARROLLO EMPRESA INDIVIDUAL DE RESPONSABILIDAD LIMITADA,-8.3819266,-74.5294396,ALIMENTOS,407.0
20602571212,DISTRIBUCIONES IPIZARRO SOCIEDAD ANÓNIMA CERRADA - DISTRIBUCIONES IPIZARRO S.A.C.,-6.2297337,-77.8625456,ALIMENTOS,0.0
20600471962,CONSTRUCTORA Y CONSULTORA EL TUMI E.I.R.L.,-12.065219808080808,-77.04388598181818,ALIMENTOS,0.0
20605305092,UV PHARMA S.A.C.,-12.2180269,-76.9767421,MATERIAL Y EQUIPO MEDICO,0.0
20550531543,P & E SOLUCIONES INDUSTRIALES S.A.C.,-12.1120726,-76.9895674,MATERIAL Y EQUIPO MEDICO,0.0
20603120711,Z&C IMPORTACIONES GENERALES E.I.R.L. - Z&C IMPORT E.I.R.L.,-12.0151464,-76.986577,MATERIAL Y EQUIPO MEDICO,0.0
20603080069,BENLAZ MEDIC S.A.C.,-11.9879669,-76.9963131,MATERIAL Y EQUIPO MEDICO,0.0
20420035901,REPRESENTACIONES MEDICAS M&M S.A.C,-16.4019721,-71.5329457,MATERIAL Y EQUIPO MEDICO,0.0
20601407656,DROGUERIA A Y T S.A.C.,-12.1944982,-77.0283036,MATERIAL Y EQUIPO MEDICO,0.0
20503662869,TAGUMEDICA S.A.,-12.0432818,-77.0687816,MATERIAL Y EQUIPO MEDICO,0.0
20437337536,REGIANZ S.R.L,-12.0747047,-77.0151623,MATERIAL Y EQUIPO MEDICO,18919.0
20555553626,EQUIPOS PROIN S.A.C.,-16.3878515,-71.5245654,OTROS BIENES,0.0
20448319530,PERU MUNDO DISTRIBUCIONES S.A.C.,-12.04965997171717,-77.03433712525252,MATERIAL Y EQUIPO MEDICO,199.0
20564434796,MULTISERVICIOS NAVAFARMA PERU E.I.R.L,-14.0777198,-72.6249943,MATERIAL Y EQUIPO MEDICO,0.0
20604425523,INPROMEG EMPRESA INDIVIDUAL DE RESPONSABILIDAD LIMITADA - INPROMEG E.I.R.L.,-13.1859,-74.0247,ALIMENTOS,0.0
20468787360,ROCHEM BIOCARE DEL PERU S.A.C,-12.0947714,-77.0507309,MATERIAL Y EQUIPO MEDICO,0.0
20600719824,INVERSIONES B & SAN S.A.C.,-16.3436884,-71.5401597,ALIMENTOS,0.0
20600566149,INVERSIONES CLAUDIA VALESKA E.I.R.L.,-5.1759888,-80.6320697,MATERIAL Y EQUIPO MEDICO,219.0
20471476898,MULTIMEDICAL SUPPLIES SAC,-18.0546514,-70.2548022,MATERIAL Y EQUIPO MEDICO,0.0
20455950130,FERMIAN&#39;S REPRESENTACIONES S.R.L.,-12.0523729,-77.1138574,ALIMENTOS,0.0
20533610995,BIENES Y SERVICIOS SAN SEBASTIAN E.I.R.L.,-11.9357126,-77.0541632,ALIMENTOS,0.0
20541386956,IBERICA GRUPO EMPRESARIAL SOCIEDAD ANONIMA - IGREMSA,-6.2297337,-77.8625456,ALIMENTOS,115.0
20601988233,MORADEL GROUP E.I.R.L.,-4.8826465,-80.6704106,ALIMENTOS,0.0
20534929081,SOFER  DIAGNOSTICS  E.I.R.L.,-13.4251061,-76.1159648,MATERIAL Y EQUIPO MEDICO,0.0
20451989104,CIALGE S.A.C.,-11.9824404,-77.0104568,ALIMENTOS,0.0
20534496622,INVERSIONES HERMANOS FLORES E.I.R.L.,-13.1584181,-74.2184221,ALIMENTOS,0.0
20602675107,BIENES Y SERVICIOS GENERALES DOMENICA E.I.R.L.,-12.0440246,-77.113212,MATERIAL Y EQUIPO MEDICO,0.0
20603469136,SAIMUND INVERSIONES E.I.R.L.,-6.7867219,-79.8510736,OTROS SERVICIOS,9.0
20392764373,DROGUERIA CADILLO S.A.C,-11.953228,-77.0799691,MATERIAL Y EQUIPO MEDICO,0.0
20495099793,ALMACEN MAYORISTA DE ABARROTES AYACUCHO S.A.C.,-13.1584181,-74.2184221,ALIMENTOS,0.0
20494663075,DISTRIBUIDORA MARISUR SOCIEDAD COMERCIAL DE RESPONSABILIDAD LIMITADA,-14.8540292,-72.4328784,ALIMENTOS,0.0
20604246327,D'1RA DISTRIBUCIONES S.R.L.,-12.0662959,-77.0658858,ALIMENTOS,0.0
20518074050,EMPRESA BIACCI S.A.C.,-12.0219106,-77.1094144,PROD. ASEO Y LIMPIEZA,0.0
20494190231,LC GROUP SOCIEDAD ANONIMA CERRADA,-11.9666512,-77.0080947,OTROS BIENES,444.0
20508758902,SCHUBERT COMPANY S.A.C.,-11.827927,-77.0555059,MATERIAL Y EQUIPO MEDICO,0.0
20602146368,MULTISERVICIOS GENERALES JOSHUA KADI S.A.C.,-8.134874100000001,-79.05209009854508,ALIMENTOS,0.0
20603576391,HL CORPORACION LINARES S.A.C.,-5.7105904,-78.8032221,ALIMENTOS,2157.0
20482126112,MOLINO EL COMANCHE S.R.L.,-11.1143414,-77.59447818225651,ALIMENTOS,0.0
20404700007,MOLINERA LIBERTAD E.I.R.L,-9.9297964,-76.2459741,ALIMENTOS,209.0
20491008840,ASOCIACION AGROPECUARIA INDUSTRIAL SAN JERONIMO,-6.7797407,-79.8636738,ALIMENTOS,0.0
20539665198,SERVINMED E.I.R.L.,-11.8278111,-77.1311294,MATERIAL Y EQUIPO MEDICO,0.0
20600287461,MULTISERVICIOS MATACI E.I.R.L.,-8.1035526,-79.1067918,ALIMENTOS,411.0
20548049203,ROSSY FARMA E.I.R.L.,-12.04618793714367,-77.01542422320449,MATERIAL Y EQUIPO MEDICO,0.0
20604661821,"GRUPO DE ASESORES EN TECNOLOGIA, HIDROLOGIA Y AMBIENTE S.A.C. - GRUPO ATHA S.A.C.",-12.0194111,-77.0911005,ALIMENTOS,0.0
20600420004,CONSTRUCTORA E INVERSIONES ANAHI EMPRESA INDIVIDUAL DE RESPONS. LIMITAD-CONSTRUCCTURA ANAHI E.I.R.L.,-18.0142951,-70.2426513,ALIMENTOS,0.0
20532078980,CONSULTORIA CONSTRUCTORA E INVERSIONES RCC S.A.C.,-11.8628977,-77.0315617,ALIMENTOS,0.0
20601222753,AGROINDUSTRIAS ALIMENTARIAS TODOVIT E.I.R.L,-8.3758427,-74.5475372,ALIMENTOS,0.0
20563865998,DISTRIBUIDORA MILAN S.A.C.,-12.2482213,-76.8971132,ALIMENTOS,0.0
20106897914,ENTEL PERU S.A.,-12.0984436,-77.0267642,OTROS BIENES,0.0
20297386531,INVERSIONES DON QUIJOTE S.A.C.,-12.0606215,-77.1327233,ALOJAMIENTO TEMPORAL Y ALIMENTACIÓN,0.0
20512675752,INVERSIONES GENERALES LIBRA S.A.C.,-12.0605,-77.1473336,ALOJAMIENTO TEMPORAL Y ALIMENTACIÓN,0.0
20522351033,CHIRRY'S INVERSIONES S.A.C. - C.H.I.S.A.C.,-12.118365,-77.0253277,ALOJAMIENTO TEMPORAL Y ALIMENTACIÓN,0.0
20379719440,100PRE FELIZ SOCIEDAD ANONIMA CERRADA,-12.05301813030303,-77.02535032424242,ALOJAMIENTO TEMPORAL Y ALIMENTACIÓN,0.0
20536047906,HOTELERIA PERUANA S.A.C.,-12.12622455,-77.01650302531911,ALOJAMIENTO TEMPORAL Y ALIMENTACIÓN,84842.0
20231843460,COSTA DEL SOL S A,-12.0646399,-77.0388697,ALOJAMIENTO TEMPORAL Y ALIMENTACIÓN,0.0
20601954673,GRUPO ALQAMARI SOCIEDAD ANONIMA CERRADA,-12.101368099999998,-77.05963998262331,ALOJAMIENTO TEMPORAL Y ALIMENTACIÓN,0.0
20552522207,OPERACIONES TURISTICAS PERUANAS S.A.C.,-12.0606215,-77.1327233,ALOJAMIENTO TEMPORAL Y ALIMENTACIÓN,0.0
20386303003,CORPORACION HOTELERA METOR S.A.,-12.0646399,-77.0388697,ALOJAMIENTO TEMPORAL Y ALIMENTACIÓN,0.0
20372362252,HOTELERA LOS GIRASOLES S.A.C.,-13.7130248,-76.1530643,ALOJAMIENTO TEMPORAL Y ALIMENTACIÓN,0.0
20266548584,HOTELERA ANTIGUA S.A.C.,-3.755969,-73.2507905,ALOJAMIENTO TEMPORAL Y ALIMENTACIÓN,0.0
20333976235,INVERSIONES INMOBILIARIAS ARAGOM SOCIEDAD ANONIMA CERRADA-INVERSIONES INMOBILIARIAS ARAGOM S.A.C.,-12.09564365,-77.04506009385476,ALOJAMIENTO TEMPORAL Y ALIMENTACIÓN,0.0
20515298127,Q.P. HOTELS SOCIEDAD ANONIMA CERRADA,-12.1202843,-77.03727135163487,ALOJAMIENTO TEMPORAL Y ALIMENTACIÓN,0.0
20515601164,TURISMO EL TAMBO S.A.C.,-13.5111564,-72.0089255,ALOJAMIENTO TEMPORAL Y ALIMENTACIÓN,0.0
20100032610,HOTELES SHERATON DEL PERU SOCIEDAD ANONIMA CERRADA - HOTELES SHERATON DEL PERU S.A.C.,-12.0577299,-77.0359791,ALOJAMIENTO TEMPORAL Y ALIMENTACIÓN,0.0
20602990754,FARES PERU E.I.R.L.,-12.2389174,-76.8705561,ALIMENTOS,159.0
20602127304,TABACCHI TABACCHI SERVICIOS GENERALES SOCIEDAD ANONIMA CERRADA,-11.48944715,-77.21407536016032,LIMPIEZA Y FUMIGACIÓN,16.0
20601099153,SERVICIOS GENERALES MEGS 1976 E.I.R.L.,-16.398268783333332,-71.53492170833333,LIMPIEZA Y FUMIGACIÓN,371.0
20600253868,AMAYO'S FOOD S.A.C.,-12.0559483,-75.2352746,ALIMENTOS,0.0
20476029474,SIGMA ENTERPRISES PERU S.A.C.,-12.0776886,-77.0288372,MATERIAL Y EQUIPO MEDICO,0.0
20490818473,QORI - SILCO ENPRESA INDIVIDUAL DE RESPONSABILIDAD LIMITADA - QORI-SILCO E.I.R.L.,-16.4089361,-71.4972463,ALIMENTOS,0.0
20489974224,NEGOCIOS GENERALES SALMA SOCIEDAD COMERCIAL DE RESPONSABILIDAD LIMITADA,-9.0929358,-78.56274,ALIMENTOS,0.0
20494028051,INVERSIONES FRAKMAT SOCIEDAD ANONIMA CERRADA,-18.0343012,-70.2739264,ALIMENTOS,0.0
20568842970,DISTRIBUCIONES JNV S.A.C.,-12.0735363,-75.211676,ALIMENTOS,0.0
20101639275,IPESA S.A.C.,-11.9676719,-76.7431393,OTROS BIENES,0.0
20605113916,DISTRIBUIDORA Y TRANSPORTES JAZMIN DE JESUS E.I.R.L.,-9.111431,-78.537653,ALIMENTOS,0.0
20527726990,INDUSTRIAS ALIMENTARIAS TALAVERA E.I.R.L.,-8.3758427,-74.5475372,ALIMENTOS,0.0
20338570041,LINDE PERU S.R.L.,-12.1281297,-77.0066192,MATERIAL Y EQUIPO MEDICO,0.0
20285093245,ITALTRAC SELVA SAC,-8.0958283,-79.0092805,OTROS BIENES,0.0
20602456707,DISTRIBUIDORA Y COMERCIALIZADORA JB & CIA S.A.C,-15.4726484,-70.1220346,ALIMENTOS,0.0
20601044162,COMERCIALIZADORA Y DISTRIBUIDORA FERSAM S.A.C.,-12.0458453,-77.1096191,ALIMENTOS,0.0
20266352337,PRODUCTOS TISSUE DEL PERU S.A.C - PROTISA-PERU,-11.7859662,-77.155657,PROD. ASEO Y LIMPIEZA,0.0
20603763255,NAZARIA DISTRIBUCIONES EMPRESA INDIVIDUAL DE RESPONSABILIDAD LIMITADA-NAZARIA DISTRIBUCIONES E.I.R.L,-12.0611919,-77.1281364,ALIMENTOS,1774.0
20489482437,SERVICIOS MULTIPLES JEFFRANCK EMPRESA INDIVIDUAL DE RESPONSABILIDAD LIMITADA,-9.0482919,-77.8045873,ALIMENTOS,0.0
20604260885,IMPORTACIONES LUCUMA S.A.C.,-12.081583326262626,-77.01875768787879,MATERIAL Y EQUIPO MEDICO,0.0
20490195301,ASOCIACION DE MUJERES PRODUCTORAS SANTO DOMINGO TALLARIN DE CASA,-11.8744687,-77.0304807,ALIMENTOS,0.0
20501458164,HERCO COMBUSTIBLES S.A.,-12.5423451,-76.7244097,OTROS BIENES,0.0
20322848928,CODVIL S.R.L.,-12.6658585,-76.6411598,ALIMENTOS,0.0
20603700601,DROGUERIA MEDICA HOSPITALARIA S.A.C.,-11.1711263,-75.9891716,MATERIAL Y EQUIPO MEDICO,0.0
20604735646,FABLAB MEDICAL E.I.R.L.,-12.059313,-75.2064157,PROD. ASEO Y LIMPIEZA,0.0
20438217097,NEGOCIOS SEMPER E.I.R.L,-11.1143414,-77.59447818225651,ALIMENTOS,0.0
20602259022,NEGOCIOS GENERALES DELFER SOCIEDAD ANONIMA CERRADA,-12.075123,-77.0538083,ALIMENTOS,0.0
20453663087,DISTRIBUCIONES LUCY S.R.L.,-12.0961237,-77.0492745,ALIMENTOS,0.0
20509647012,GREEN LAND GROUP SOCIEDAD ANONIMA CERRADA - GL GROUP S.A.C.,-5.1686953,-80.666022,ALIMENTOS,0.0
20600769244,CORPORACION PERJAM S.R.L.,-13.5283239,-71.9564513,MATERIAL Y EQUIPO MEDICO,203.0
20308877605,DISTRIBUCIONES Y REPR. BAGUA S.C.R.L.,-16.3990342,-71.528595,ALIMENTOS,0.0
20600740114,CORPORACION LANUS S.A.C.,-7.1556928,-78.5092796,MATERIAL Y EQUIPO MEDICO,0.0
20394070191,CENTRO MEDICO ESPECIALIZADO YARINACOCHA  E.I.R.L.,-11.956991,-77.0521309,OTROS SERVICIOS,76.0
20603261608,INGENIERIA MONCAT E.I.R.L.,-13.5283239,-71.9564513,MATERIAL Y EQUIPO MEDICO,0.0
20122963714,IMPLANTES EXTERNOS PERUANOS S.A.C.,-12.0729498,-77.1074894,PROD. ASEO Y LIMPIEZA,0.0
20501887286,DIAGNOSTICA PERUANA S.A.C.,-12.0904548,-77.0190702,MATERIAL Y EQUIPO MEDICO,0.0
20123711875,TECCIOS S.A.C.,-12.0556343,-77.0618233,MATERIAL Y EQUIPO MEDICO,0.0
20107914995,INMUNOCHEM SAC,-12.0904548,-77.0190702,MATERIAL Y EQUIPO MEDICO,0.0
20494971217,DISTRIBUIDORA COMERCIALIZADORA E.I.R.L.,-13.1464569,-74.2308885,ALIMENTOS,0.0
20602955410,NURIMEDD S.A.C.,-8.1280016,-79.0217822,MATERIAL Y EQUIPO MEDICO,94.0
20454099886,FERMOSUR S.A.C.,-12.195101999999999,-76.95011093631824,MATERIAL Y EQUIPO MEDICO,0.0
20505389582,SANTA ANA LOGISTICA SAC.,-12.0605492,-76.9786867,OTROS SERVICIOS,0.0
20600290216,GRUPO MEGATELG S.R.L.,-13.5283239,-71.9564513,MATERIAL Y EQUIPO MEDICO,110.0
20554797807,CS INGENIEROS SOCIEDAD ANONIMA CERRADA,-13.0625851,-76.3478437,"OBRAS, CONSTRUCCIONES Y CONSULTORIAS",0.0
20601399254,SERVICIOS GENERALES DELVIZA SOCIEDAD ANONIMA CERRADA - SERGENDELVIZA S.A.C.,-11.9694839,-77.061823,"OBRAS, CONSTRUCCIONES Y CONSULTORIAS",637.0
20550925916,"C & Z INGENIEROS, SOLUCIONES INTEGRALES S.R.L.",-13.7267015,-75.868551,"OBRAS, CONSTRUCCIONES Y CONSULTORIAS",0.0
20601202965,POSMART S.A.C.,-10.8652526,-76.1120876,ALIMENTOS,103.0
20521180260,OLIMPEX PERU S.A.C.,-12.0594203,-77.1257478,MATERIAL Y EQUIPO MEDICO,0.0
20114050025,EMBOTELLADORA LA SELVA SA,-12.0592751,-77.1443764,ALIMENTOS,0.0
20443769031,COMERCIAL MAYUMIS SRL,-11.9427016,-77.0464004,ALIMENTOS,0.0
20602900992,EMMED EMPRESA INDIVIDUAL DE RESPONSABILIDAD LIMITADA,-9.916462,-76.2365018,ALIMENTOS,0.0
20545421276,LABORATORIO ESTERILIZADORA LIMA SOCIEDAD ANONIMA CERRADA,-14.0446578,-75.7434657,MATERIAL Y EQUIPO MEDICO,0.0
20501549801,FERCO MEDICAL S.A.C.,-12.1281297,-77.0066192,MATERIAL Y EQUIPO MEDICO,0.0
20557532961,EMPRESA DE LIMPIEZA INDUSTRIAL Y SANEAMIENTO AMBIENTAL DALLAS S.A.C. - ELISAD S.A.C.,-11.994543335353535,-77.11022545656566,LIMPIEZA Y FUMIGACIÓN,1648.0
20490815377,JKR ROSALINA GROUP EMPRESA INDIVIDUAL DE RESPONSABILIDAD LIMITADA - JKR ROSALINA GROUP E.I.R.L.,-13.6517915,-73.9534493,ADQUISICIÓN Y ALQUILER DE VEHÍCULOS,0.0
20604122547,INVERSIONES Y SERVICIOS GENERALES EMIRTH E.I.R.L.,-12.0482966,-77.1331448,MATERIAL Y EQUIPO MEDICO,0.0
20574636788,COMPAÑIA DE NEGOCIOS ALVVAL S.A.C.,-12.0372529,-77.0630955,PROD. ASEO Y LIMPIEZA,0.0
20486179211,CHOLITO SRL,-16.403724,-71.5493341,ALIMENTOS,0.0
20600258118,CORPORACION MDC PERU S.A.C.,-16.379118,-71.5713956,MATERIAL Y EQUIPO MEDICO,0.0
20603013361,SEGURIDAD Y GARANTIA INDUSTRIAL EMPRESA INDIVIDUAL DE RESPONSABILIDAD LIMITADA - SEGAIN E.I.R.L.,-16.3788844,-71.5628585,PROD. ASEO Y LIMPIEZA,17.0
20600065727,EMPRESA COMUNAL CMB DE RESPONSABILIDAD LIMITADA - ECO CMB R.L.,-12.1637786,-76.9741994,ALIMENTOS,0.0
20478223863,OQ PHARMA S.A.C.,-14.0446578,-75.7434657,MEDICAMENTOS,0.0
20119546851,CORPORACION ADC SOCIEDAD ANONIMA CERRADA,-18.007246,-70.2447903,ALIMENTOS,0.0
20563641887,ADVANCE SCIENTIF MEDIC S.A.C. - ASCMEDIC S.A.C.,-7.1579016,-78.5225608,PROD. ASEO Y LIMPIEZA,0.0
20602179886,JOSHU MASTER SOCIEDAD ANÓNIMA CERRADA - JOSHU MASTER S.A.C.,-13.5177518,-71.9776536,OTROS SERVICIOS,315.0
20605698175,DROGUERIA CADIMED E.I.R.L.,-3.7472993,-73.2610735,PROD. ASEO Y LIMPIEZA,0.0
20602063667,KIND DEIVIS E.I.R.L.,-12.06423720909091,-77.14482684545455,ALIMENTOS,0.0
20521606003,NEGOCIOS ADVANCE S.R.L.,-16.4011399,-71.497688,MATERIAL Y EQUIPO MEDICO,277.0
20425018168,RELIMED IMPORTACIONES EIRL,-12.0322628,-77.0683602,MATERIAL Y EQUIPO MEDICO,0.0
20532536953,INVERSIONES ACCOMING S.A.C. - I-ACCOMING S.A.C.,-12.0594203,-77.1257478,ALIMENTOS,753.0
20370508659,GRIFO J.H.P. E.I.R.LTDA.,-15.4795672,-70.1547114,OTROS BIENES,0.0
20115335236,DIST COMERCIAL LEO E.I.R.L.,-16.3971336,-71.5298243,MATERIAL Y EQUIPO MEDICO,0.0
20603041977,G & J ALIMENTA EMPRESA INDIVIDUAL DE RESPONSABILIDAD LIMITADA - G & J ALIMENTA E.I.R.L.,-12.0580119,-77.1386325,ALIMENTOS,0.0
20603044020,GRUPO OXY & GAS SOCIEDAD ANONIMA CERRADA,-12.9295634,-74.2520783,OTROS BIENES,0.0
20603031785,TRADING INTERNATIONAL ITO SOCIEDAD ANONIMA CERRADA - TRADING INTERNATIONAL ITO S.A.C.,-12.045827181818183,-77.03814527676768,PROD. ASEO Y LIMPIEZA,0.0
20503300525,VITALIS PERU SAC,-11.8638101,-77.1138783,MEDICAMENTOS,0.0
20123751664,PROVERSAL SRL,-7.1563769,-78.5094129,MEDICAMENTOS,0.0
20377339461,B.BRAUN MEDICAL PERU S.A.,-12.2252545,-76.9225485,MEDICAMENTOS,0.0
20600984528,SURK AY PERU S.A.C.,-12.09782045,-76.97239040309839,PROD. ASEO Y LIMPIEZA,9523.0
20499935286,DEUTSCHE PHARMA S.A.C.,-11.9608465,-77.0576936,PROD. ASEO Y LIMPIEZA,0.0
20605774335,NEGOCIOS E INVERSIONES GENERALES JOSMABEL E.I.R.L.,-16.3436884,-71.5401597,ALIMENTOS,0.0
20502221796,TECNOLOGIAS ECOLOGICAS PRISMA SAC,-16.3956187,-71.5703669,LIMPIEZA Y FUMIGACIÓN,0.0
20555424222,INVERSIONES ALKAFRAN S.A.C.,-9.0777399,-77.0922007,ADQUISICIÓN Y ALQUILER DE VEHÍCULOS,0.0
20600745205,GRUPO DE NEGOCIOS SAN JACINTO E.I.R.L.,-13.0631567,-76.3533721,ALIMENTOS,0.0
20600274121,INVERSIONES RAMACC E.I.R.L.,-9.34818315,-77.59829150858305,ALIMENTOS,0.0
20601664616,FAVI MULTISERVIS E.I.R.L.,-15.4744107,-70.1142328,OTROS BIENES,0.0
20352486176,RED QUEEN S.R.L.,-12.9366947,-73.5293394,MATERIAL Y EQUIPO MEDICO,0.0
20341848955,GATE GOURMET PERU S.R.L.,-12.0015187,-77.1164174,ALOJAMIENTO TEMPORAL Y ALIMENTACIÓN,0.0
20423555182,CIA IMPORTADORA AMERICANA S.A.,-16.4184001,-71.5064084,MATERIAL Y EQUIPO MEDICO,0.0
20538597121,DRAEGER  PERU   S.A.C.,-12.10088,-76.9930855,MATERIAL Y EQUIPO MEDICO,0.0
20603097611,GRUPS SAN PEDRO S.A.C.,-8.1405238,-79.0526282,ALIMENTOS,206.0
20456477811,WU LAU'S S.A.C.,-12.1007083,-77.00235980289654,ALOJAMIENTO TEMPORAL Y ALIMENTACIÓN,0.0
20600400780,HOTEL LEXUS SOCIEDAD ANONIMA CERRADA - HOTEL LEXUS S.A.C.,-12.1140826,-77.03365,ALOJAMIENTO TEMPORAL Y ALIMENTACIÓN,0.0
20521804492,L Y Z INVESTMENT S.A.C,-16.4241076,-71.5115201,ALOJAMIENTO TEMPORAL Y ALIMENTACIÓN,0.0
20518738314,HOTELES ESTELAR DEL PERU S.A.C.,-12.1243688,-77.0291837,ALOJAMIENTO TEMPORAL Y ALIMENTACIÓN,0.0
20515675524,ADRIS PROYECTOS SOCIEDAD ANONIMA CERRADA - ADRIS PROYECTOS S.A.C.,-12.7268626,-76.4594365,ALOJAMIENTO TEMPORAL Y ALIMENTACIÓN,0.0
20600263201,OPERADORES TURISTICOS PERUANOS SOCIEDAD ANONIMA CERRADA,-12.0904548,-77.0190702,ALOJAMIENTO TEMPORAL Y ALIMENTACIÓN,0.0
20303274970,EMF S.A.,-12.12460455,-77.02668760817158,ALOJAMIENTO TEMPORAL Y ALIMENTACIÓN,0.0
20600805836,PRESTIGE SERVICE SOCIEDAD ANÓNIMA - PRESTIGE SERVICE S.A.,-6.4831608,-76.3796822,LIMPIEZA Y FUMIGACIÓN,3180.0
20602404341,SERVICIOS GENERALES DAFIKA E.I.R.L.,-12.037418,-77.0702759,ALOJAMIENTO TEMPORAL Y ALIMENTACIÓN,60.0
20493869311,CENTRO MEDICO FONSECA BRICEÑO S.A.C.,-16.405584767676768,-71.53335012424242,OTROS SERVICIOS,0.0
20600395794,MONTANVEL S.A.C.,-12.1136879,-77.0279909,OTROS SERVICIOS,0.0
20600544901,BIOANALITICA DEL PERU E.I.R.L.,-12.0452634,-75.2282126,PROD. ASEO Y LIMPIEZA,0.0
20509983471,CHAYPE SOCIEDAD ANONIMA CERRADA,-7.1625595,-78.5195494,ALIMENTOS,0.0
20539897056,MEDILAB CAO S.A.C.,-12.0001614,-76.9957065,MATERIAL Y EQUIPO MEDICO,0.0
20604089612,GRUPO ROBLAS S.A.C.,-7.2464556,-79.4754598,ALOJAMIENTO TEMPORAL Y ALIMENTACIÓN,12985.0
20399663521,IMPORTACIONES DEL SUR E.I.R.L.,-15.4781638,-70.1449027,ADQUISICIÓN Y ALQUILER DE VEHÍCULOS,0.0
20600205049,INVERSIONES OBREGON JD E.I.R.L.,-6.7678939,-79.8253699,ALIMENTOS,279.0
20549453024,LIFE SERVICES S.A.C.,-12.0970646,-77.0457392,OTROS BIENES,0.0
20601566771,"MEDIO AMBIENTE, AGUA & SIG E.I.R.L.",-12.1645758,-76.9880651,LIMPIEZA Y FUMIGACIÓN,0.0
20524879191,J & J TRANSPORTES Y SOLUCIONES INTEGRALES S.A.C,-11.9422083,-77.0555892,OTROS SERVICIOS,68628.0
20601465141,PROVEEDORES GENERALES DE ABASTECIMIENTO E.I.R.L.,-4.5968216,-81.2608164,PROD. ASEO Y LIMPIEZA,0.0
20548033463,SOCIEDAD DE COMERCIANTES DEL PERU S.A.C.,-12.0937359,-77.0756085,ALIMENTOS,0.0
20604212694,OMMO SERVICIOS GENERALES SOCIEDAD ANONIMA CERRADA - OMMO SERVICIOS GENERALES S.A.C.,-12.0458969,-77.1126675,ALIMENTOS,0.0
20529476265,CORPORACION LOLITTO SRL,-6.5600324,-78.651351,ALIMENTOS,539.0
20569104506,INVERSIONES OSTOLAZA S.A.C.,-9.1297263,-78.5254859,OTROS BIENES,710.0
20549693254,CONSORCIO GRAN ALTURA S.A.C.,-14.0388176,-75.7365865,ALIMENTOS,0.0
20532850232,GRUPO LALIPER S.A.C.,-17.9973888,-70.2374888,OTROS SERVICIOS,0.0
20544201612,HOTEL RUNCU SOCIEDAD ANONIMA CERRADA,-12.1194624,-77.0421467,ALOJAMIENTO TEMPORAL Y ALIMENTACIÓN,0.0
20544043103,INVERSIONES SUYAY S.A.C,-11.989276,-77.1169655,ALOJAMIENTO TEMPORAL Y ALIMENTACIÓN,0.0
20546439268,TECNOLOGIA MEDICA CORPORATION E.I.R.L,-7.7861211,-77.5934126,MATERIAL Y EQUIPO MEDICO,0.0
20445558592,CONSTRUCTORA QUIMERA S.A.C.,-12.0030148,-77.1145921,"OBRAS, CONSTRUCCIONES Y CONSULTORIAS",0.0
20467534026,AMERICA MOVIL PERU S.A.C.,-12.08654725,-77.0138854222954,OTROS SERVICIOS,0.0
20502739540,PRODUCTOS YULI DEL PERU S.A.C.,-12.0740572,-77.0326484,PROD. ASEO Y LIMPIEZA,0.0
20600596463,INSERCOR S.A.C.,-12.2475058,-76.9320156,"OBRAS, CONSTRUCCIONES Y CONSULTORIAS",0.0
20440180044,J P S DISTRIBUCIONES E.I.R.L,-8.1143499,-79.0464054,MEDICAMENTOS,0.0
20603029446,JA & DE JADE DISEÑO Y SERVICIOS GENERALES S.A.C.,-11.8349974,-77.1290283,MATERIAL Y EQUIPO MEDICO,0.0
20600838157,E & G BOOMERANG S.A.C.,-12.12864,-76.989896,OTROS SERVICIOS,0.0
20312074100,EMP DE TRANSP Y SERV NINO DE BELEN SRL,-12.041979,-77.124432,ADQUISICIÓN Y ALQUILER DE VEHÍCULOS,0.0
20600692993,TECNOLOGIA MATERIALES Y CONSTRUCCIÓN PERÚ S.A.C.,-8.1198876,-79.0212878,OTROS BIENES,369.0
20131341386,DISTRIBUIDORA LAYNE S.A.C.,-11.8265738,-77.1507664,MATERIAL Y EQUIPO MEDICO,0.0
20604748578,SELVA ROZAS E.I.R.L.,-12.5956841,-69.1756463,ADQUISICIÓN Y ALQUILER DE VEHÍCULOS,0.0
20601304521,INSTRUMENTAL INSUMOS Y EQUIPOS MEDICOS PERU SAC - INMED PERU SAC,-12.0372529,-77.0630955,MATERIAL Y EQUIPO MEDICO,0.0
20600041577,PRAXAIR INVERSIONES S.R.L.,-12.1281297,-77.0066192,MATERIAL Y EQUIPO MEDICO,0.0
20489676801,PRAGA OXIGENOS EIRL,-5.1805047,-80.6302957,MATERIAL Y EQUIPO MEDICO,0.0
20556510190,INSUMET S.A.C.,-11.9961036,-77.0768587,MATERIAL Y EQUIPO MEDICO,3322.0
20601019877,INVERSIONES MULTISERVICIOS J & K PEREZ SOCIEDAD ANONIMA CERRADA,-16.2460164,-69.093761,ALIMENTOS,5260.0
20515412353,MEDIC LINE LAB S.R.L.,-12.0256995,-77.1079113,MATERIAL Y EQUIPO MEDICO,0.0
20547961456,JOSSON MEDICAL EIRL,-12.0653615,-77.0422565,MATERIAL Y EQUIPO MEDICO,0.0
20600044461,GLOBAL MEDICAL S.A.C.,-18.0142951,-70.2426513,MATERIAL Y EQUIPO MEDICO,1319.0
20549255656,FABRI MEDICAL S.A.C.,-12.0307427,-77.0712493,MATERIAL Y EQUIPO MEDICO,0.0
20605391967,GRUPO SASI S.A.C.,-8.3778167,-74.5371624,ALIMENTOS,0.0
20600540271,SAJEAD INVERSIONES Y SERVICIOS GENERALES SOCIEDAD ANONIMA CERRADA,-13.1404537,-74.2275716,"OBRAS, CONSTRUCCIONES Y CONSULTORIAS",3160.0
20602733948,DROGUERIA VANIA MEDIC E.I.R.L.,-12.0572309,-77.1256592,MATERIAL Y EQUIPO MEDICO,0.0
20601815533,GCOM S.A.C.,-17.9954505,-70.2580106,OTROS SERVICIOS,321.0
20552504641,OPTICAL TECHNOLOGIES SAC,-12.0952577,-77.0131775,OTROS SERVICIOS,0.0
20119207640,ESTACION DE ENERGIAS EL CENTENARIO SOCIEDAD ANONIMA CERRADA - ENERGIAS EL CENTENARIO S.A.C.,-14.0446578,-75.7434657,OTROS BIENES,0.0
20605114858,MERCANTIL DEL PUEBLO Y SERVICIOS GENERALES NUEVA ESPERANZA S.A. - MEPUSEGENE S.A.,-14.0517574,-75.7468849,ALIMENTOS,1085.0
20493832825,ASOCIACION DE PRODUCTORES AGROPECUARIOS EL OVALO,-7.1648022,-78.4991991,ALIMENTOS,0.0
20601970768,COMERCIALIZADORA CAMPOMAR S.R.L.,-5.9909525,-76.4687872,ALIMENTOS,443.0
20602569609,INNOVA COMPANY SELVA S.A.C.,-18.0677223,-70.2913505,ALIMENTOS,0.0
20600908201,MEDILAB HEALTHCARE E.I.RL.,-8.1102602,-79.0345495,MATERIAL Y EQUIPO MEDICO,0.0
20487559254,INVERSIONES TECOR SOCIEDAD COMERCIAL DE RESPONSABILIDAD LIMITADA,-16.403724,-71.5493341,ALIMENTOS,0.0
20512913017,DUKE LOGISTIC S.A.C.,-11.8510245,-77.1244184,ALIMENTOS,0.0
20511751404,INDUSTRIAS GABUTEAU SOCIEDAD ANONIMA,-12.052365735353536,-77.03470905555555,PROD. ASEO Y LIMPIEZA,0.0
20347475981,MILITARY & OUTDOOR PRODUCTS SOCIEDAD ANOMIMA CERRADA,-12.0662412,-76.9760701,MATERIAL Y EQUIPO MEDICO,0.0
20137976171,WELLCO PERUANA S.A.,-12.047492959531771,-77.01160174749164,OTROS BIENES,0.0
20520991027,INVERSIONES SAN BENITO DE PALERMO E.I.R.L.,-12.0440246,-77.113212,OTROS BIENES,25421.0
20526921993,DISTRIBUIDORA Y COMERCIALIZADORA DIVANA EMPRESA INDIVIDUAL DE RESPONSABILIDAD LIMITADA,-12.043177665656566,-77.04481994949495,ALIMENTOS,107.0
20600371399,GRUPO MUGASUR SOCIEDAD ANONIMA CERRADA - GRUPO MUGASUR S.A.C.,-17.9964703,-70.2585132,OTROS BIENES,0.0
20535856479,GIALEY REPRESENTACIONES Y SERVICIOS E.I.R.L.,-11.838167,-77.167473,MATERIAL Y EQUIPO MEDICO,0.0
20600396863,WORLD DIAGNOSTIC S.A.C.,-12.0370665,-77.0722533,PROD. ASEO Y LIMPIEZA,77.0
20524966752,ATLANTICA DE COMERCIO S.A.C.,-12.0452482,-77.0456287,MATERIAL Y EQUIPO MEDICO,6.0
20144442629,HOGAR CLINICA SAN JUAN DE DIOS,-12.06552355,-76.98966108626959,OTROS SERVICIOS,0.0
20600470664,FMEDIC E.I.R.L.,-12.0211592,-77.0273496,PROD. ASEO Y LIMPIEZA,0.0
20601393451,MARAZA LAB COMPANY  E.I.R.L..,-13.5362932,-71.9566137,MATERIAL Y EQUIPO MEDICO,0.0
20603097654,CORPORACION ATIPAQ PERU MQT S.A.C.,-12.0714638,-77.0375464,ALIMENTOS,0.0
20263368992,CYMED MEDICAL SAC,-12.0908619,-77.0477902,MATERIAL Y EQUIPO MEDICO,219.0
20453933301,REPRESENTACIONES VEAL EIRL.,-14.7958331,-71.4056904,ALIMENTOS,0.0
20601817111,OXIMEDIC IMPORT S.A.C.,-12.0810031,-77.0950318,MATERIAL Y EQUIPO MEDICO,0.0
20551385168,CENTRO DE DIALISIS VIRGEN DEL LOURDES S.A.C.,-13.1667134,-74.2355259,OTROS SERVICIOS,0.0
20100096936,ABBOTT LABORATORIOS SA,-12.099861,-77.0189249,MEDICAMENTOS,0.0
20600091418,INVERSIONES GIANMARCO E.I.R.L.,-12.0598356,-77.0378648,ALIMENTOS,0.0
20505126069,X RAY SALES AND SERVICE S.A.C.,-12.0635842,-77.1008005,MATERIAL Y EQUIPO MEDICO,0.0
20604109842,MALCA CORPORATION S.A.C. - MALCA CORP S.A.C.,-11.9404631,-76.9734965,OTROS SERVICIOS,0.0
20604110662,ANDEAN SAFETY E.I.R.L.,-11.9941773,-77.1180512,MATERIAL Y EQUIPO MEDICO,18517.0
20600675550,LIPROMED S.A.C,-12.2180269,-76.9767421,MATERIAL Y EQUIPO MEDICO,0.0
20536941364,TEVIMED S.A.C.,-12.0747594,-77.1119763,OTROS BIENES,0.0
20492574652,IMPORTACIONES L & A MEDIC S.A.C.,-12.0578902,-77.0392477,MATERIAL Y EQUIPO MEDICO,0.0
20556665126,CORPORACION P & P GLOBAL S.A.C.,-16.2460164,-69.093761,ALIMENTOS,0.0
20600042123,DISTRIBUCIONES MERCONOR S.A.C.,-12.0218709,-77.0614619,ALIMENTOS,0.0
20603187068,MIMARQUI E.I.R.L.,-11.8253603,-77.1333549,MATERIAL Y EQUIPO MEDICO,0.0
20393999544,DELMAN E.I.R.L.,-13.6315582,-73.2629373,MATERIAL Y EQUIPO MEDICO,0.0
20475625545,FUNERARIA SAN MARTIN S.R.L.,-8.107335,-79.0036261,LIMPIEZA Y FUMIGACIÓN,0.0
20254356051,OLC INGENIEROS E I R L,-11.8387636,-77.1227588,OTROS BIENES,0.0
20604227390,SERVICIOS GENERALES JR & CO E.I.R.L.,-12.0962719,-77.047005,MATERIAL Y EQUIPO MEDICO,0.0
20393638878,FRAEMY S.A.C.,-8.3882994,-74.5313596,MATERIAL Y EQUIPO MEDICO,0.0
20605836071,"SERVICIOS, PROYECTOS, AUTOMATIZACION Y CONTROL S.A.C.",-12.1346023,-76.9914712,MATERIAL Y EQUIPO MEDICO,0.0
20553715394,IMPORTADORA LATINA MEDICA S.R.L.,-12.0250441,-77.1098297,OTROS BIENES,0.0
20559941451,SERVICIOS GENERALES ABIGAIL BARRIOS S.A.C.,-17.1931533,-70.9296468,ALIMENTOS,0.0
20491658542,DISTRIBUCIONES CASTHER Y ASOCIADOS S.A.C.,-15.6449703,-71.6040416,ALIMENTOS,0.0
20605965831,CORPORACION CERRO VERDE S.A.C.,-11.9596707,-77.1263776,MATERIAL Y EQUIPO MEDICO,2193.0
20517003337,PRIMEDIC COMPANY S.A.,-12.0083526,-77.0691874,MATERIAL Y EQUIPO MEDICO,0.0
20489371791,INVERSIONES PACCHIONI E INGENIEROS CONTRATISTAS S.R.L.,-16.3992706,-71.5289284,"OBRAS, CONSTRUCCIONES Y CONSULTORIAS",8971.0
20128905759,OXIGENO LORETO S.R.L.,-8.3701093,-74.5599688,MATERIAL Y EQUIPO MEDICO,0.0
20602558071,OSM UCAYALI EMPRESA INDIVIDUAL DE RESPONSABILIDAD LIMITADA,-8.3853929,-74.5453466,MATERIAL Y EQUIPO MEDICO,0.0
20452354757,MAXFER SAC,-15.3713948,-75.1556652,MATERIAL Y EQUIPO MEDICO,0.0
20537758377,ICU MEDICAL PERU S.R.L.,-12.0408843,-77.0676611,PROD. ASEO Y LIMPIEZA,0.0
20536851373,ARALMEX GROUP S.A.C.,-11.8281429,-77.1336586,MATERIAL Y EQUIPO MEDICO,0.0
20600969120,ILLARING SAMI E.I.R.L.,-6.2297337,-77.8625456,MATERIAL Y EQUIPO MEDICO,0.0
20502790731,BARRON VIEYRA INTERNATIONAL PERU S.A.C.,-12.1842251,-77.0047025,MATERIAL Y EQUIPO MEDICO,0.0
20502551311,ENDEL MEDIC S.A.C.,-11.8638101,-77.1138783,MATERIAL Y EQUIPO MEDICO,0.0
20602243894,OLIMED MEDICAL IMPORT S.A.C.,-13.5111564,-72.0089255,PROD. ASEO Y LIMPIEZA,0.0
20559092020,SOTEIH SERVICIOS GENERALES S.A.C.,-11.9415309,-77.1103958,ADQUISICIÓN Y ALQUILER DE VEHÍCULOS,0.0
20600514670,MCG EDIFICACIONES E.I.R.L.,-10.7312992,-73.7548586,"OBRAS, CONSTRUCCIONES Y CONSULTORIAS",0.0
20544448006,DROGUERIA JRS MEDDEV SOCIEDAD ANONIMA CERRADA-JRS MEDDEV S.A.C.,-16.3843342,-71.569279,MATERIAL Y EQUIPO MEDICO,0.0
20408023638,CONSTRUCTORA Y SERVICIOS MULTIPLES PEREZ S.A.C.,-8.3897533,-74.5711373,ALIMENTOS,0.0
20603540205,GRUPO RUMEDIC S.A.C.,-11.9747554,-77.0004607,OTROS BIENES,0.0
20528037055,AGROINDUSTRIAS VITAGEN EMPRESA INDIVIDUAL DE RESPONSABILIDAD LIMITADA,-11.9747133,-77.0041751,ALIMENTOS,28.0
20557728270,LONG GRAY COMPANY SOCIEDAD ANONIMA CERRADA,-8.3904021,-74.5386532,ALIMENTOS,330.0
20492876071,FULL COLOR CREATIVE Y MARKETING S.A.C.,-12.05103174040404,-77.03818291313131,OTROS SERVICIOS,0.0
20256983479,TEGUISE TURISTICA PERU S.A,-12.051883199999999,-77.03835495736033,ALOJAMIENTO TEMPORAL Y ALIMENTACIÓN,0.0
20602035345,AMERICAN MADEX CONSTRUCTORES Y CONSULTORES S.A.C.,-11.9893038,-77.0139,ADQUISICIÓN Y ALQUILER DE VEHÍCULOS,1567.0
20547243065,DISPOSITIVOS MEDICOS E.I.R.L.,-11.8208853,-77.1499915,MATERIAL Y EQUIPO MEDICO,0.0
20600225805,CORPORACION ALIMENTARIA MAAZ S.A.C. - CORALIMA S.A.C.,-13.1590661,-74.2313425,ALOJAMIENTO TEMPORAL Y ALIMENTACIÓN,0.0
20604055742,FABRICACION HORNOS INCINERADORES INDUSTRIALES S.A. - FAHIN S.A.,-11.9884398,-77.0641284,OTROS SERVICIOS,0.0
20304581337,INVER HOTEL SAC,-12.10528145,-77.03992644398045,ALOJAMIENTO TEMPORAL Y ALIMENTACIÓN,4598.0
20546934862,INVERSIONES YU'S 2 S.A.C.,-11.923511,-77.0342551,ALOJAMIENTO TEMPORAL Y ALIMENTACIÓN,0.0
20563079585,FIALTUR S.A.C.,-12.0891724,-77.0232464,ALOJAMIENTO TEMPORAL Y ALIMENTACIÓN,0.0
20507104755,FIRMEZA INVERSIONES S.A.C.,-16.385816,-71.5681173,ALOJAMIENTO TEMPORAL Y ALIMENTACIÓN,0.0
20547154127,DREAMS INVERSIONES CORPORATIVAS E.I.R.L.,-12.1652904,-76.972609,ALOJAMIENTO TEMPORAL Y ALIMENTACIÓN,0.0
20447737249,EGA & C S.R.L.,-13.522919,-71.9918787,"OBRAS, CONSTRUCCIONES Y CONSULTORIAS",323.0
20600162501,EL FOGONCITO CAJAMARQUINO S.A.C.,-6.2157511,-77.8738457,ALOJAMIENTO TEMPORAL Y ALIMENTACIÓN,0.0
20555901179,MOVIL BUS S.A.C,-12.0408843,-77.0676611,OTROS SERVICIOS,0.0
20511265216,EMPRESA DE TRANSPORTES GRUPO HORNA SOCIEDAD ANONIMA CERRADA,-12.073272469696969,-77.02940445353535,OTROS SERVICIOS,0.0
20600353552,NEGOCIOS Y SERVICIOS SAN FERNANDO NIEVA E.I.R.L.,-16.397248833333332,-71.53821703333334,ALIMENTOS,0.0
20504684025,REPRESENTACIONES UNIMPORT SRL,-12.12837,-77.0229211,MATERIAL Y EQUIPO MEDICO,0.0
20533226621,SIRSAF EMPRESA INDIVIDUAL DE RESPONSABILIDAD LIMITADA  - SIRSAF E.I.R.L.,-12.0452482,-77.0456287,OTROS BIENES,0.0
20516367670,OXYMAN COMERCIAL SAC,-12.0450878,-77.0612241,MATERIAL Y EQUIPO MEDICO,0.0
20503650186,SPECTRUM INGENIEROS SOCIEDAD ANONIMA CERRADA,-11.9453693,-77.0581673,MATERIAL Y EQUIPO MEDICO,0.0
20514267112,BERAMED E.I.R.L.,-12.0557561,-77.1023288,MATERIAL Y EQUIPO MEDICO,9712.0
20545309191,CORPORACION PERUANA JADIRSA S.A.C.,-11.9990486,-77.0162268,ADQUISICIÓN Y ALQUILER DE VEHÍCULOS,2890.0
20102032951,A JAIME ROJAS REPRESENTACIONES GRLES S A,-12.0488445,-77.0738712,MATERIAL Y EQUIPO MEDICO,0.0
20517698131,BERTONATI TECHNOLOGIES S.A.,-11.9348999,-77.0438136,ADQUISICIÓN Y ALQUILER DE VEHÍCULOS,0.0
20534678062,WORLD TEXTILE S.A.C.,-12.1259485,-77.03230725644607,OTROS BIENES,0.0
20600359551,AGROINDUSTRIA GRANOVERDE S.A.C.,-11.981073,-77.1089577,ALIMENTOS,0.0
20487854418,AVGC REPRESENTACIONES SOCIEDAD COMERCIAL DE RESPONSBALIDAD LIMITADA,-18.0343012,-70.2739264,ALIMENTOS,0.0
20604540781,INVERSIONES AMAZON MAC E.I.R.L.,-6.2217199,-77.8722109,ALIMENTOS,187.0
20549196978,COMAPORD S.A.C.,-12.06247555,-77.12861975,MATERIAL Y EQUIPO MEDICO,0.0
20293847038,TEXTILES CAMONES S.A.,-11.8677466,-77.0696416,OTROS BIENES,0.0
20542506068,LIVIA CONST S.R.L.,-6.7726845,-79.8654574,LIMPIEZA Y FUMIGACIÓN,6270.0
20475715960,INDUSTRIAS SUPER SPORT S.R.L.,-6.7703336,-79.8748179,MATERIAL Y EQUIPO MEDICO,0.0
20503842689,CORPORACION INDUSTRIAL INDEPENDENCIA SOCIEDAD ANONIMA CERRADA,-12.0662412,-76.9760701,OTROS BIENES,0.0
20100910129,CARTIR PERU S R L,-12.1265985,-77.0310299,ALOJAMIENTO TEMPORAL Y ALIMENTACIÓN,0.0
20275873480,SERVICENTRO RAMIREZ S.A.C.,-12.054258355102041,-77.03040386122449,OTROS BIENES,0.0
20603828080,SIURON ENGINEERING PERU S.A.C.,-12.113871,-77.0477639,MATERIAL Y EQUIPO MEDICO,0.0
20543441474,TERRANDES S.A.C.,-11.9655974,-77.0141817,MATERIAL Y EQUIPO MEDICO,0.0
20134502003,ESTACION DE SERV. ESPINOZA ORE HNOS SRL,-13.6517915,-73.9534493,OTROS BIENES,0.0
20100154308,SAN FERNANDO S.A.,-12.0594411,-77.1323157,ALIMENTOS,0.0
20603343701,GLOBAL SERVICE MINING F & O SOCIEDAD COMERCIAL DE RESPONSABILIDAD LIMITADA,-7.1654937,-78.4950041,MATERIAL Y EQUIPO MEDICO,0.0
20600743202,FACTIO QUALITAS S.A.C.,-12.0215117,-77.0960694,MATERIAL Y EQUIPO MEDICO,0.0
20605098097,KIMDDA S.A.C.,-11.1665842,-75.9972839,OTROS BIENES,0.0
20548414181,AC MEDICAL S.A.C.,-12.083403512121212,-77.06042955959596,MATERIAL Y EQUIPO MEDICO,0.0
20254713423,MARKETING MANAGEMENT INTERNATIONAL S.A.C,-12.0716234,-76.9981798,PROD. ASEO Y LIMPIEZA,0.0
20603420501,AIKO REPRESENTACIONES S.A.C,-7.18274175,-76.7309830402681,MATERIAL Y EQUIPO MEDICO,0.0
20601756103,NEGOCIOS VCM EIRL,-12.1008154,-76.9385466,ALIMENTOS,0.0
20602313477,EASY ADD SOCIEDAD ANONIMA CERRADA,-12.0001614,-76.9957065,MATERIAL Y EQUIPO MEDICO,1383.0
20552188544,INSUMOS MEDICOS F & J S.A.C.,-2.7935002,-70.0870401,MATERIAL Y EQUIPO MEDICO,0.0
20409244344,INVERSIONES EL MURIQUE SOCIEDAD COMERCIAL DE RESPONSABILIDAD LIMITADA,-4.5848805,-81.2597859,ALOJAMIENTO TEMPORAL Y ALIMENTACIÓN,0.0
20600339002,COMIWA S.A.C.,-12.063073249999999,-77.0208382,MATERIAL Y EQUIPO MEDICO,0.0
20513298481,J & R PERUVIAN S.A.C.,-11.9634758,-77.0073158,PROD. ASEO Y LIMPIEZA,0.0
20600316789,PRODUCTOS PALMERA S.A.C.,-12.058391638383839,-77.02611550101011,PROD. ASEO Y LIMPIEZA,0.0
20532435847,CORPORACION ISUR S.R.L.,-16.4188617,-69.2174305,PROD. ASEO Y LIMPIEZA,0.0
20600780825,FGP PERUVIAN S.R.L.,-12.0259214,-77.1079108,MATERIAL Y EQUIPO MEDICO,0.0
20600956478,3IT GROUP SAC,-12.1282993,-76.9766471,MATERIAL Y EQUIPO MEDICO,0.0
20418108151,HILANDERIA DE ALGODON PERUANO S.A.,-9.5041142,-77.5228412,OTROS BIENES,0.0
20601406285,CORPORACION TURISTICA ALCAS SOCIEDAD COMERCIAL DE RESPONSABILIDAD LIMITADA,-12.05422987230784,-77.02734386226825,ALOJAMIENTO TEMPORAL Y ALIMENTACIÓN,0.0
20539408543,CONSTRUCTORA COSUR E.I.R.L.,-16.3878515,-71.5245654,OTROS SERVICIOS,0.0
20604575452,EMPRESA DE SERVICIOS MULTIPLES FAIK EMPRESA INDIVIDUAL DE RESPONSABILIDAD LIMITADA,-16.401435850505052,-71.52412725757576,OTROS BIENES,0.0
20602232655,CORPORACION TURISTICO TITIKAKA LAKE SOCIEDAD ANONIMA CERRADA - CORPOLAKE S.A.C.,-15.836554,-70.0284571,ALOJAMIENTO TEMPORAL Y ALIMENTACIÓN,236.0
20602119905,INVERSIONES AYMA A Y A SOCIEDAD ANONIMA CERRADA,-6.7074163,-79.8968655,ALOJAMIENTO TEMPORAL Y ALIMENTACIÓN,0.0
20226226410,EMP DE SERV TURISTICOS AMERICAN S C R L,-6.7074163,-79.8968655,ALOJAMIENTO TEMPORAL Y ALIMENTACIÓN,0.0
20549152920,CASSA CONCESIONARIA S.A.C.,-3.7330964,-73.2408044,ADQUISICIÓN Y ALQUILER DE VEHÍCULOS,0.0
20493092015,CORPORACION MARSANO SOCIEDAD ANONIMA CERRADA,-11.837807,-77.1689782,OTROS SERVICIOS,0.0
20552711603,W & H INVESTMENT S.A.C,-11.5026196,-77.2123635,OTROS SERVICIOS,0.0
20547335695,DROGUERIA TEXTIL ALGODONERA S.A.C.,-12.0432818,-77.0687816,MATERIAL Y EQUIPO MEDICO,0.0
20321182918,INSTITUTO DE EDUCACION SUPERIOR TECNOLOGICO PRIVADO FELIX DE LA ROSA REATEGUI Y GAVIRIA EIRL,-7.1616721,-78.5078128,ALOJAMIENTO TEMPORAL Y ALIMENTACIÓN,412.0
20508271353,INVERSIONES HOTELERAS PANAMERICANO SOCIEDAD ANONIMA CERRADA,-14.0586586,-75.7391589,ALOJAMIENTO TEMPORAL Y ALIMENTACIÓN,0.0
20100970962,TURISMO EL DORAL S.A.C.,-12.1188673,-77.0331928,ALOJAMIENTO TEMPORAL Y ALIMENTACIÓN,1060.0
20544759346,CORPORACION HOTELERA DE SERVICIOS Y EVENTOS JESHUA S.A.C.,-15.4946671,-70.1631353,ALOJAMIENTO TEMPORAL Y ALIMENTACIÓN,0.0
20529483041,EL AS SERVICIOS GENERALES E.I.R.L,-11.9681819,-77.0044033,OTROS BIENES,1454.0
20453639968,ESTACION DE SERVICIOS CRYSMAR E.I.R.L.,-12.0736567,-77.16586821599314,OTROS BIENES,0.0
20491818922,MULTISERVICIOS CAMACHO S.R.L,-5.188509,-80.608122,OTROS BIENES,0.0
20136424867,DERRAMA MAGISTERIAL,-12.0842472,-77.0516563,ALOJAMIENTO TEMPORAL Y ALIMENTACIÓN,0.0
20605101128,TURISMO Y VIAJES EL CHARAPITA E.I.R.L.,-6.579997,-76.2621546,ALOJAMIENTO TEMPORAL Y ALIMENTACIÓN,7.0
20542238462,RIOSOL HOTELES SOCIEDAD ANONIMA CERRADA,-12.037418,-77.0702759,ALOJAMIENTO TEMPORAL Y ALIMENTACIÓN,336.0
20522873919,GRUPO QUIMILAB SOCIEDAD ANONIMA CERRADA,-13.4381488,-76.1416989,MATERIAL Y EQUIPO MEDICO,0.0
20602770860,ASOCIACION DE PRODUCTORES DE ARROZ DEL VALLE DEL SHANUSI,-6.4939899,-76.3746794,ALIMENTOS,0.0
20501584623,ARGOS MEDICAL IMPORT S.R.L.,-8.0741779,-79.0510027,MATERIAL Y EQUIPO MEDICO,0.0
20600804856,MIS TRES ANGELITOS HOSPEDAJE E.I.R.L.,-11.7985612,-77.174284,ALOJAMIENTO TEMPORAL Y ALIMENTACIÓN,102.0
20494185319,GRAN HOTEL DORADO E.I.R.L.,-6.0372959,-76.9695016,ALOJAMIENTO TEMPORAL Y ALIMENTACIÓN,166.0
20605403906,J & M TOOLS E.I.R.L.,-6.7663827,-79.8417301,ALIMENTOS,0.0
20551789170,FABEL MEDICA E.I.R.L.,-12.0307427,-77.0712493,MATERIAL Y EQUIPO MEDICO,0.0
20565850360,DEL AGUILA CORPORATION S.A.C. - DELACORP S.A.C.,-12.0926273,-76.9739592,ALIMENTOS,0.0
20543254798,VIETTEL  PERU  S.A.C.,-12.0001614,-76.9957065,OTROS SERVICIOS,0.0
20510012900,CENTRO MEDICO INTERNACIONAL DE SERVICIOS E INVESTIGACION DE MEDICINA DE ALTITUD SAC-CENTRO MEDICO CI,-13.5235738,-71.9748884,OTROS SERVICIOS,0.0
20511743720,CONSORCIO 3C PLAYA SAC,-12.0586771,-77.1280796,ALIMENTOS,9874.0
20536390201,JOBAL PHARMA E.I.R.L.,-12.056085549999999,-77.12960712749651,MEDICAMENTOS,0.0
20545673593,CRIOGAS S.A.C,-12.048751,-77.128398,MATERIAL Y EQUIPO MEDICO,0.0
20566139601,PROTEC MEDICAL S.A.C.,-8.3787261,-74.5401944,MATERIAL Y EQUIPO MEDICO,0.0
20382072023,AIR PRODUCTS PERU S.A.,-12.0930753,-77.0343465,MATERIAL Y EQUIPO MEDICO,0.0
20516809524,MEDIO AMBIENTE SALUD Y EDUCACION REPRESENTACIONES S.A.C - MASED REPRESENTACIONES S.A.C.,-13.1404537,-74.2275716,MATERIAL Y EQUIPO MEDICO,0.0
20600811283,MULTISERVICIOS ZION EIRL,-12.02554,-77.1094917,OTROS BIENES,0.0
20603236549,TECHNOFLEX L & L S.A.C.,-11.8411869,-77.1218614,PROD. ASEO Y LIMPIEZA,0.0
20602841708,ACERO REFORZADO A & L E.I.R.L.,-12.0452482,-77.0456287,OTROS BIENES,0.0
20511609675,ADMINISTRACION DE SERVICIOS COMPLEMENTARIOS SOCIEDAD ANONIMA CERRADA,-12.0188486,-77.0858805,LIMPIEZA Y FUMIGACIÓN,0.0
20600613899,AMERIPLANET S.A.C.,-12.0968503,-77.0310436,MATERIAL Y EQUIPO MEDICO,0.0
20605756949,INVERSIONES LAYSEF E.I.R.L.,-13.1485299,-74.231561,ALIMENTOS,0.0
20418896915,MAPFRE PERU VIDA COMPAÑIA DE SEGUROS Y REASEGUROS,-12.12835905,-77.02513155040498,SEGUROS,0.0
20601745527,MAGNETOTERAPIA ANCON1 E.I.R.L.,-12.0001614,-76.9957065,MATERIAL Y EQUIPO MEDICO,0.0
20531888341,MULTISERVICIOS GALUJEZA S.A.C.,-16.39288275,-71.57378097133028,"OBRAS, CONSTRUCCIONES Y CONSULTORIAS",0.0
20603358504,HAC CONTRATISTAS GENERALES S.A.C.,-12.1161587,-77.0176426,ADQUISICIÓN Y ALQUILER DE VEHÍCULOS,0.0
20543924351,GRUPO JHS S.A.C.,-12.061671209090909,-77.04247004242424,MATERIAL Y EQUIPO MEDICO,0.0
20601289408,PW SOLUTIONS S.A.C.,-12.053934850000001,-77.14423241570267,MATERIAL Y EQUIPO MEDICO,0.0
20554076573,TECNOLOGIA Y FILTRACION INDUSTRIAL S.A.C,-11.9352179,-77.0409552,OTROS BIENES,0.0
20602975071,CORPORACION SEGURIDAD BEREAN S.A.C.,-16.4011399,-71.497688,OTROS SERVICIOS,0.0
20604819696,INNOVACIONES B & S E.I.R.L.,-5.9901804,-79.7443423,MATERIAL Y EQUIPO MEDICO,0.0
20600656482,IMPORTACIONES VIA AYAYCHAN S.A.C.,-12.0136224,-77.0871633,PROD. ASEO Y LIMPIEZA,0.0
20518611080,MILENIUM GROUP SAC,-3.5741272,-80.4525793,PROD. ASEO Y LIMPIEZA,0.0
20516663481,LABORATORIOS BARTON S.A.C.,-9.111431,-78.537653,MATERIAL Y EQUIPO MEDICO,0.0
20602196446,GDISAH E.I.R.L.,-6.765201,-79.8239887,PROD. ASEO Y LIMPIEZA,0.0
20427325831,I Y M ENTREGAS Y REPARTOS S.R.L.,-12.027362,-77.0194188,ALIMENTOS,0.0
20605945750,SILLUSTANI TOUR HOTEL S.A.C.,-12.0560415,-77.1302128,ALOJAMIENTO TEMPORAL Y ALIMENTACIÓN,0.0
20603486308,G & G MARKETING & MERCHANDISING E.I.R.L.,-8.3904021,-74.5386532,PROD. ASEO Y LIMPIEZA,114.0
20602232451,GLA SOLUCIONES EMPRESARIALES Y CONSULTORIA S.A.C. - GLA SOLUCIONES S.A.C.,-11.832562,-77.1405749,MATERIAL Y EQUIPO MEDICO,0.0
20548839433,SOLUCIONES MEDICAS Y SERVICIOS E.I.R.L.,-11.8405314,-77.1592423,MATERIAL Y EQUIPO MEDICO,106.0
20601905184,DROGUERIA BIOMED MEDICAL E.I.R.L. - BIOMED MEDICAL E.I.R.L.,-12.0220064,-77.1098356,MATERIAL Y EQUIPO MEDICO,0.0
20264592497,TEXGROUP S.A.,-16.4027886,-71.5396717,OTROS BIENES,0.0
20600357582,LAND INGENIEROS & CONSTRUCTORES S.A.C.,-12.041679587755102,-77.09748939387755,OTROS SERVICIOS,0.0
20601219868,GR MEDICAL E.I.R.L.,-12.0506648,-77.0601471,OTROS BIENES,1556.0
20447611814,FRANCI'S PUNO HOTEL EMPRESA INDIVIDUAL DE RESPONSABILIDAD LIMITADA,-12.044519612244898,-77.03645175306121,ALOJAMIENTO TEMPORAL Y ALIMENTACIÓN,0.0
20518777727,CONSORCIO LOGISTICO E INVERSIONES S.A.C.,-12.046530623232323,-77.03936054646464,OTROS BIENES,0.0
20473645662,INVERSIONES HOCH ES SAC,-16.4512871,-71.552262,OTROS BIENES,594.0
20393080451,J & M EMPRESA DE TRANSPORTES MULTIPLES E.I.R.L,-8.1965518,-77.8985386,OTROS BIENES,0.0
20532050112,CONSTRUCTORA Y PROYECTOS CIVILES AZVET  S.A.C.,-12.0653615,-77.0422565,OTROS SERVICIOS,395.0
20605441417,ESPERANZA HOTEL E.I.R.L.,-18.0093165,-70.24376,ALOJAMIENTO TEMPORAL Y ALIMENTACIÓN,0.0
20605190449,TUNKI CAPITAL S.A.C.,-12.9366947,-73.5293394,ALOJAMIENTO TEMPORAL Y ALIMENTACIÓN,0.0
20100085225,QUIMICA SUIZA SOCIEDAD ANONIMA CERRADA - QUIMICA SUIZA S.A.C.,-12.2073778,-76.9891171,MEDICAMENTOS,0.0
20601888271,COSMOGRACE S.A.C.,-12.0864177,-77.0472865,MEDICAMENTOS,0.0
20100018625,MEDIFARMA S A,-18.0201399,-70.2540845,MEDICAMENTOS,0.0
20568494327,PREMREBIO E.I.R.L.,-11.8302233,-77.1552563,"OBRAS, CONSTRUCCIONES Y CONSULTORIAS",0.0
20295006570,ANDINA MEDICA FILIAL PERU,-11.8353518,-77.1287661,MATERIAL Y EQUIPO MEDICO,0.0
20601328331,GAESA TRADING S.A.C.,-8.3761577,-74.5305702,PROD. ASEO Y LIMPIEZA,0.0
20493098994,INVERSIONES INTI TUMI SOCIEDAD ANONIMA CERRADA,-11.9732199,-77.0054269,ALOJAMIENTO TEMPORAL Y ALIMENTACIÓN,0.0
20451527232,SERVICIO REVOLUCIONARIO HOSPITALARIO SOCIEDAD ANONIMA CERRADA - SRH S.A.C.,-12.0001614,-76.9957065,OTROS SERVICIOS,0.0
20523570391,INDUSTRIAS SIMET SOCIEDAD ANONIMA CERRADA-INDUSTRIAS SIMET S.A.C.,-11.8445653,-77.1390273,OTROS BIENES,0.0
20541505041,CAMEHB INGENIERIA & CONSTRUCCION S.A.C.,-10.5757772,-75.399099,OTROS SERVICIOS,0.0
20601762219,AUTONIZA S.A.C.,-12.0594411,-77.1323157,ADQUISICIÓN Y ALQUILER DE VEHÍCULOS,0.0
20522497321,DIAGTEST S.A.C.,-11.9545171,-77.057149,MATERIAL Y EQUIPO MEDICO,0.0
20552071787,CORPORACION GIANYFARMA S.A.C,-3.5793145,-80.4487127,MATERIAL Y EQUIPO MEDICO,0.0
20333483395,GAMEL S.R.L.,-12.088776150000001,-77.03288755,PROD. ASEO Y LIMPIEZA,0.0
20477780424,MJF INVERSIONES INMOBILIARIAS Y DE SERVICIO SOCIEDAD COMERCIAL DE RESPONSABILIDAD LIMITADA - MJF I,-12.0450878,-77.0612241,PROD. ASEO Y LIMPIEZA,0.0
20531808763,CORPORACION Y SERVICIOS DE CHIMBOTE S.A.C.,-12.03093595,-77.09736487954173,OTROS SERVICIOS,1405.0
20601125642,GRUPO INDUSTRIAL ELFI S.A.C. - GRINELFI S.A.C.,-12.0727906,-77.0061403,OTROS BIENES,14332.71
20396986338,GRAN BOLIVAR HOTEL S.A,-7.1671184,-78.5115606,ALOJAMIENTO TEMPORAL Y ALIMENTACIÓN,0.0
20603687371,CONSORCIO EL FRAYLE E.I.R.L.,-12.0511462,-77.1298803,ALOJAMIENTO TEMPORAL Y ALIMENTACIÓN,507.0
20604879389,MATETO E.I.R.L.,-12.0519359,-77.1128697,MATERIAL Y EQUIPO MEDICO,356.0
20472172701,UNIVERSAL SD S.A.C.,-12.1142814,-77.0002611,MATERIAL Y EQUIPO MEDICO,0.0
20290631689,IMPORTADORA FABHET SRL,-12.0922498,-77.0580774,MATERIAL Y EQUIPO MEDICO,0.0
20568444575,DISTRIBUIDORA Y MULTINEGOCIOS GALVAN S.A.C.,-10.5782177,-75.4046407,ALIMENTOS,0.0
20409000984,AGROINDUSTRIA ALTO AMAZONAS S.R.L.,-12.0378089,-77.0596686,ALIMENTOS,0.0
20600350553,MULTILLANTAS EL CHATO E.I.R.L.,-8.1014326,-79.0117418,OTROS BIENES,0.0
20101966128,INVERSIONES EL MARQUES S R L,-12.0958713,-77.0308866,ALOJAMIENTO TEMPORAL Y ALIMENTACIÓN,0.0
20601288959,EXPORT MUNDO ALPACA S.A.C.,-13.5111564,-72.0089255,ALOJAMIENTO TEMPORAL Y ALIMENTACIÓN,0.0
20602276890,GRUPO SEGURIDAD ESTRATEGICA S.A.C.,-13.5107679,-72.0078206,OTROS SERVICIOS,0.0
20559298230,MD BIOMEDICA E.I.R.L.,-16.408588,-71.479252,MATERIAL Y EQUIPO MEDICO,0.0
20434806691,GRUPO CORTIMYN E.I.R.L.,-12.06356160909091,-77.15198902222222,OTROS BIENES,0.0
20568024878,A Y A CORPORACION REAL S.A.C.,-11.956991,-77.0521309,ALIMENTOS,0.0
20565331419,LTC SERVICIOS GENERALES HOSPITALARIOS S.A.C.,-12.054058483838384,-77.03882332828283,OTROS SERVICIOS,0.0
20551248179,LAMIDECOR S.A.C.,-3.755969,-73.2507905,MATERIAL Y EQUIPO MEDICO,0.0
20551664806,AMERICA INNOVA MEDIC E.I.R.L.,-12.047516585714286,-77.03688801428571,MATERIAL Y EQUIPO MEDICO,3026.0
20601642922,LABORATORIO DESLAB E.I.R.L.,-11.9989159,-77.1146495,OTROS BIENES,162313.0
20605437908,CORPORATION CORCELSA S.A.C. - CORCELSA S.A.C.,-17.9954505,-70.2580106,PROD. ASEO Y LIMPIEZA,0.0
20601290686,YANIMEDIC S.A.C.,-12.0438039,-77.03549211380107,MATERIAL Y EQUIPO MEDICO,0.0
20445481514,ASISTENCIA Y MECANICA AUTOMOTRIZ S.R.L,-11.9348999,-77.0438136,ADQUISICIÓN Y ALQUILER DE VEHÍCULOS,0.0
20602771203,CORPORACION DIAL SOCIEDAD ANONIMA CERRADA-CORPORACION DIAL S.A.C,-12.0747047,-77.0151623,MATERIAL Y EQUIPO MEDICO,0.0
20101015492,JORGE PEÑA S A JORPESA,-6.7449577,-79.868795,OTROS BIENES,0.0
20202578145,COMED E.I.R.L.,-12.0578902,-77.0392477,MATERIAL Y EQUIPO MEDICO,0.0
20507062653,LUKOLL S.A.C.,-12.0973139,-77.0575579,MEDICAMENTOS,0.0
20602558585,ISC MEPRESUR E.I.R.L.,-12.059041254545456,-77.03117968888888,ALOJAMIENTO TEMPORAL Y ALIMENTACIÓN,0.0
20601479690,WF INTERNATIONAL BUSINESS SOCIEDAD COMERCIAL DE RESPONSABILIDAD LIMITADA,-13.4207334,-71.8506883,ALOJAMIENTO TEMPORAL Y ALIMENTACIÓN,0.0
20605926160,RED DE SALUD VIDA INTEGRA S.A.C.,-8.1162449,-79.0264125,MATERIAL Y EQUIPO MEDICO,28.0
20601477727,CONSULTORES & CONSTRUCTORES AGUCHIPG E.I.R.L.,-12.0934341,-77.0258146,ADQUISICIÓN Y ALQUILER DE VEHÍCULOS,0.0
20604035440,HOTEL CONTRERAS EMPRESA INDIVIDUAL DE RESPONSABILIDAD LIMITADA - HOTEL CONTRERAS E.I.R.L.,-13.5220253,-71.9627506,ALOJAMIENTO TEMPORAL Y ALIMENTACIÓN,1005.0
20547110189,PROVEEDORES MINEROS Y CONSTRUCCION EMPRESA INDIVIDUAL DE RESPONSABILIDAD LIMITADA,-11.8322948,-77.1287321,OTROS SERVICIOS,0.0
20486928183,CONSTRUCTORES G Y L SERVICIOS MULTIPLES S.A.C.,-14.067097,-75.7257852,"OBRAS, CONSTRUCCIONES Y CONSULTORIAS",640.0
20100096855,SANOFI-AVENTIS DEL PERU S.A,-12.09204955,-77.02884695,MEDICAMENTOS,0.0
20501881083,MOBILIARIOS HOSPITALARIOS SIN FIN S.A.C.,-12.0779691,-77.016836,MATERIAL Y EQUIPO MEDICO,0.0
20136788982,ORTOPEDIA SAN JUAN DE DIOS SRLTDA.,-12.0768452,-77.0293306,MATERIAL Y EQUIPO MEDICO,0.0
20600913141,PROVISEG PERU S.R.L,-5.7173636,-78.8073188,OTROS SERVICIOS,0.0
20305882071,CASIMIRES NABILA S.A.C.,-12.0602433,-77.0171615,MATERIAL Y EQUIPO MEDICO,0.0
20556520233,R-MAHDI S.A.C.,-6.7813684,-79.8404762,PROD. ASEO Y LIMPIEZA,0.0
20548129908,PRODUCCION Y SERVICIOS COMERCIALES PERU S.A.C.,-6.7852567,-79.8480171,MATERIAL Y EQUIPO MEDICO,0.0
20480524366,DROGUERIA CORPORACION FARMASALUD EIRL,-3.755969,-73.2507905,MATERIAL Y EQUIPO MEDICO,0.0
20483789867,CONSTRUCTORA IDROGO SOCIEDAD COMERCIAL DE RESPONSABILIDAD LIMITADA,-12.041184,-77.0184899,OTROS SERVICIOS,0.0
20605950672,CORPORACIÓN SAYUMI E.I.R.L.,-11.9396664,-77.0731033,MATERIAL Y EQUIPO MEDICO,1057.0
20602010687,JT LABORATORIO QUIMICO E.I.R.L.,-12.0645328,-77.1110805,OTROS BIENES,128.0
20100488427,KOSSODO S.A.C.,-12.080099,-76.9919161,MATERIAL Y EQUIPO MEDICO,0.0
20100060150,HERSIL S.A. LABORATORIOS INDUSTRIALES FARMACEUTICOS,-12.0757378,-76.9634837,PROD. ASEO Y LIMPIEZA,0.0
20568682085,EMPRESA DE SERVICIOS MULTIPLES TIMEDEL SOCIEDAD ANONIMA CERRADA,-11.9439681,-77.054853,ALIMENTOS,0.0
20568457804,CONSORCIO DARGUS S.R.L.,-12.0634094,-77.1505274,MATERIAL Y EQUIPO MEDICO,0.0
20600383842,STAR-LAB LABORATORIO CLÍNICO ESPECIALIZADO E.I.R.L.,-8.0973321,-79.0127197,MATERIAL Y EQUIPO MEDICO,246.0
20602842968,EMPRESA HOTELERA REAL S.A.C.,-16.4231034,-71.5174333,ALOJAMIENTO TEMPORAL Y ALIMENTACIÓN,0.0
20539851811,L & R TURISMO Y COMERCIO S.A.C.,-8.1052797,-79.0264143,ALOJAMIENTO TEMPORAL Y ALIMENTACIÓN,0.0
20262996329,FARMINDUSTRIA S.A.,-18.0163986,-70.2457068,MEDICAMENTOS,0.0
20529840684,CONSTRUCCIONES Y SERVICIOS SERVINORTE E.I.R.L.,-12.0460608,-77.1142616,OTROS SERVICIOS,0.0
20543523101,RB IMPORTEK SOCIEDAD ANONIMA CERRADA,-12.12837,-77.0229211,OTROS BIENES,0.0
20574679673,HOTEL Y RESTAURANT SANTA ROSA E.I.R.L.,-11.9666512,-77.0080947,ALOJAMIENTO TEMPORAL Y ALIMENTACIÓN,0.0
20604099278,INVERSIONES Y SERVICIOS GENERALES RD & M SRL,-9.1624627,-77.3669218,OTROS SERVICIOS,0.0
20520655001,ELECTRICOM ELECTRICIDAD & COMUNICACIONES S.A.C.-ELECTRICOM E & C S.A.C.,-11.9998883,-77.0637068,OTROS SERVICIOS,0.0
20547563485,CORPORACION VARUM S.A.C. - VARUM S.A.C.,-6.780305,-79.851534,OTROS SERVICIOS,0.0
20100041953,RIMAC SEGUROS Y REASEGUROS,-11.8348275,-77.1369101,SEGUROS,0.0
20564091571,CLINICA CAVERO EIRL,-13.6517915,-73.9534493,MATERIAL Y EQUIPO MEDICO,186.0
20491577895,INVERSIONES CORTEZ S.R.L,-13.5201088,-71.9826828,ALOJAMIENTO TEMPORAL Y ALIMENTACIÓN,0.0
20604077371,INVERSIONES DE EVENTOS SERVICIOS GENERALES HOYOS E.I.R.L.,-7.1664535,-78.5146224,OTROS BIENES,15905.0
20561211966,E & N ENTERPRISE S.A.C.,-8.0908256,-78.9954358,MATERIAL Y EQUIPO MEDICO,0.0
20603989733,GRUPO MUNDO - NEGOCIO S.A.C.,-12.1281297,-77.0066192,MATERIAL Y EQUIPO MEDICO,0.0
20480398042,INVERMEDIC SAC,-13.3916863,-76.1462037,MATERIAL Y EQUIPO MEDICO,0.0
20122720650,SURPACK S.A.,-12.0505682,-77.1331374,OTROS SERVICIOS,0.0
20431084172,ANCRO S.R.L.,-13.5207536,-71.9931735,OTROS SERVICIOS,0.0
20602753710,INVERSIONES VALUPA E.I.R.L.,-15.4393458,-74.617815,PROD. ASEO Y LIMPIEZA,0.0
20601664250,SERVICIOS HOTELEROS DEL SUR S.A.C.,-5.199866,-80.6284051,ALOJAMIENTO TEMPORAL Y ALIMENTACIÓN,0.0
20533159258,NUEVO HOTEL PLAZA EL CARMEN EMPRESA INDIVIDUAL DE RESPONSABILIDAD LIMITADA - NHPC E.I.R.L.,-12.9366947,-73.5293394,ALOJAMIENTO TEMPORAL Y ALIMENTACIÓN,0.0
20533199985,BILBAO HOTEL INN E.I.R.L.,-7.1502123,-78.5165535,ALOJAMIENTO TEMPORAL Y ALIMENTACIÓN,1521.0
20532814279,INVERSIONES BOLIVAR TACNA S.A.C.,-5.199866,-80.6284051,ALOJAMIENTO TEMPORAL Y ALIMENTACIÓN,0.0
20542041596,FERRETERÍA INDUSTRIAL RIO NILO E.I.R.L.,-9.1512227,-76.9911774,ALIMENTOS,0.0
20513609150,PROYECTOS & DETALLES SOCIEDAD ANONIMA CERRADA,-12.0820356,-76.9281966,MATERIAL Y EQUIPO MEDICO,1613.0
20542311488,A & G MISTI CONSTRUCTORES S.A.C,-13.5213053,-71.9888408,LIMPIEZA Y FUMIGACIÓN,14122.0
20482262130,CENTRO NEFROLOGICO SANTA LUCIA S.A.C.,-8.1044694,-79.0308833,OTROS SERVICIOS,0.0
20523508670,SUMINISTROS BIOMEDICOS SOCIEDAD ANONIMA CERRADA - SUMINISTROS BIOMEDICOS S.A.C.,-12.0083526,-77.0691874,MATERIAL Y EQUIPO MEDICO,0.0
20574604070,INGENIERIA GRAN PERU S.A.C.,-8.3682248,-74.5485636,OTROS BIENES,0.0
20543312232,SOFTLINE INTERNATIONAL PERU S.A.C.,-5.188509,-80.608122,OTROS SERVICIOS,0.0
20553808481,R M P CLEANER S.A.C.,-5.0916988,-81.0976452,PROD. ASEO Y LIMPIEZA,0.0
20603055773,BULLCORP PERU S.A.C-BULLCORP S.A.C,-13.1549472,-74.20978960434152,MATERIAL Y EQUIPO MEDICO,5935.0
20505374470,GENIA TECH SAC,-12.1064743,-76.9424222,MATERIAL Y EQUIPO MEDICO,0.0
20372156512,NEGOCIACIONES UNIVERSAL POWER S.R.L,-12.1505726,-76.9784343,MATERIAL Y EQUIPO MEDICO,0.0
20601826870,EQUIPOS Y MOBILIARIOS MEDICOS DEL PERU E.I.R.L.,-12.0256827,-77.1078717,MATERIAL Y EQUIPO MEDICO,0.0
20602923577,DROGUERIA IMPORTADORA & COMERCIALIZADORA L. VALDIVIEZO E.I.R.L.,-6.0341881,-76.968692,MATERIAL Y EQUIPO MEDICO,0.0
20373008533,SAEG PERU S.A.,-12.0904548,-77.0190702,"OBRAS, CONSTRUCCIONES Y CONSULTORIAS",0.0
20487152227,GRUPO BLESSING PERU S.A.C.,-9.5154515,-77.5278461,"OBRAS, CONSTRUCCIONES Y CONSULTORIAS",0.0
20545792177,CHAPOLAB SAC,-9.9301689,-76.2517114,OTROS BIENES,0.0
20505110651,W.P. BIOMED SOCIEDAD ANONIMA,-11.8758256,-77.1275143,MATERIAL Y EQUIPO MEDICO,0.0
20523951603,LABORATORIOS SIEGFRIED S.A.C.,-13.5213053,-71.9888408,MEDICAMENTOS,0.0
20604828890,SAYRITH INVERSIONES S.A.C.,-16.3951617,-71.568371,ALIMENTOS,11.0
20509422444,ICO LOGISTICA S.A.C.,-12.0001614,-76.9957065,ALIMENTOS,0.0
20321656219,SERVICENTRO EL GALLITO S.C.R.LTDA.,-11.9288601,-77.0393274,OTROS BIENES,0.0
20546840531,FUSION COMUNICACIONES S.A.C.,-12.09294,-77.06132,"OBRAS, CONSTRUCCIONES Y CONSULTORIAS",0.0
20543306771,CORPORACION CIMMSA SOCIEDAD ANONIMA - CORPORACION CIMMSA S.A.,-11.838167,-77.167473,MATERIAL Y EQUIPO MEDICO,0.0
20528024743,"""MORFEUS PALACE "" EMPRESA INDIVIDUAL DE RESPONSABILIDAD LIMITADA",-13.2088887,-72.47512264835973,ALOJAMIENTO TEMPORAL Y ALIMENTACIÓN,0.0
20545390966,ZWEI HUNDE INGENIEROS S.A.C.,-11.8432712,-77.1292864,OTROS SERVICIOS,0.0
20605321616,TEXTILES & MODA GUSTAVO E.I.R.L.,-12.0434767,-77.1061631,MATERIAL Y EQUIPO MEDICO,0.0
20498635432,TECNOLOGIAS MEDICAS AREQUIPA S.A.-TECNOMEDICA S.A.,-16.4013042,-71.5468506,OTROS SERVICIOS,0.0
20299942423,UNILABS LABORATORY DIAGNOSTICS SERVICES S.A.,-12.09582535,-77.04303099972964,OTROS SERVICIOS,0.0
20527691673,MISTERS INKAS HOTELS INN PALACE EXCLUSIVE EIRL,-13.5222611,-71.9731606,ALOJAMIENTO TEMPORAL Y ALIMENTACIÓN,0.0
20531963149,CONSTRUTEC M & Z  S.A.C.,-11.8063889,-77.1883333,LIMPIEZA Y FUMIGACIÓN,0.0
20309112459,INVERSIONES MANU S.A.C.,-18.0231777,-70.2420893,ALOJAMIENTO TEMPORAL Y ALIMENTACIÓN,0.0
20100965888,HOSPEDAJES SEñORIAL S.A.C.,-12.0163406,-77.0939819,ALOJAMIENTO TEMPORAL Y ALIMENTACIÓN,0.0
20496514140,ELECTRONICA GONZALES E.I.R.L,-12.0596411,-77.1328556,OTROS BIENES,0.0
20503707048,DOMINIOS TURISTICOS SOCIEDAD ANONIMA CERRADA,-12.072559412121212,-77.16132869494949,ALOJAMIENTO TEMPORAL Y ALIMENTACIÓN,0.0
20502797230,DIVEIMPORT S.A.,-12.0685572,-76.9968415,ADQUISICIÓN Y ALQUILER DE VEHÍCULOS,0.0
20565831900,PHARMINTEGRA S.A.C.,-12.0659736,-77.1150514,MEDICAMENTOS,0.0
20600720598,CONSTRUCCIONES ATLAS PROYECTOS Y SERVICIOS GENERALES E.I.R.L.,-13.1398247,-74.2224068,OTROS BIENES,0.0
20502719948,CONVEXUS COMUNICACIONES REDES Y SISTEMAS S.A.C.,-12.0904548,-77.0190702,OTROS BIENES,0.0
20519485649,TERSEM EIRL,-12.0258766,-77.0982538,MATERIAL Y EQUIPO MEDICO,0.0
20486434938,CONSTRUCTORA Y CONSULTORA DEL ORIENTE PERUANO S.A.C - CYCOP S.A.C,-6.4846326,-76.3568348,OTROS SERVICIOS,22.0
20602414133,OPERADORA DE HOTELES QUIPUQ S.A.C.,-12.0646493,-77.1465769,ALOJAMIENTO TEMPORAL Y ALIMENTACIÓN,0.0
20601168325,GLOBALMED S.A.C.,-7.1642396,-78.5128242,OTROS BIENES,37.0
20538817776,CORPORACIÓN DEL AIRE S.A.C,-11.9884398,-77.0641284,OTROS SERVICIOS,0.0
20542858410,INVERSIONES PEREZ ALENCART SOCIEDAD ANONIMA CERRADA,-12.047756633333334,-77.03738244444445,ALOJAMIENTO TEMPORAL Y ALIMENTACIÓN,0.0
20605182497,INGBYSA E.I.R.L.,-13.5283239,-71.9564513,ALIMENTOS,6279.0
20601922453,DROGUERIAS PERUMEDIC E.I.R.L.,-12.0566934,-77.1367887,OTROS BIENES,0.0
20433546394,EDALMI S.A.C.,-12.0335323,-77.0627179,OTROS BIENES,0.0
20521421721,4P ASESORES S.A.C.,-11.8826274,-77.1337856,MATERIAL Y EQUIPO MEDICO,0.0
20605393129,UEZU INGENIEROS CONTRATISTAS S.R.L.,-12.0441076,-77.0674169,OTROS SERVICIOS,0.0
20604332282,INVERSIONES RENVAR S.A.C.,-12.0687382,-77.1158036,PROD. ASEO Y LIMPIEZA,0.0
20541166913,MAVIVE CONSTRUCTORA Y SERVICIOS GENERALES E.I.R.L.,-12.041610971428572,-77.09606266734694,OTROS SERVICIOS,0.0
20342046836,TECNOLOGIA ELECTROMEDICA S.A.C.,-18.0546514,-70.2548022,MATERIAL Y EQUIPO MEDICO,0.0
20423044765,CORPORACION ALIMENTARIA ALEXCAR S.A.C.,-16.4504947,-71.5538491,ALIMENTOS,0.0
20523788427,PIRPALAP SOCIEDAD ANONIMA CERRADA,-12.0448184,-77.0403719,OTROS SERVICIOS,0.0
20603202199,DISTRIBUIDORA DE FARMACOS NOR ORIENTAL EMPRESA INDIVIDUAL DE RESPONSABILIDAD LIMITADA,-9.0516376,-78.5890738,MATERIAL Y EQUIPO MEDICO,12.0
20600751434,INTERNATIONAL MEDICAL DEVICES S.A.C.,-12.0728222,-77.1088922,MATERIAL Y EQUIPO MEDICO,0.0
20548091587,NEO ENTERPRISE IMPORT S.A.C.,-12.045962454545455,-77.0379347919192,MATERIAL Y EQUIPO MEDICO,0.0
20476435464,CORPORACION DIALAC S.A.,-12.0588476,-77.1279746,MATERIAL Y EQUIPO MEDICO,13839.0
20603791607,NCMEDIC & DISTRIBUCION S.A.C.,-11.8756739,-77.1374704,MATERIAL Y EQUIPO MEDICO,0.0
20396499691,ESCACORP S.A.C.,-8.3682248,-74.5485636,OTROS SERVICIOS,0.0
20160340534,MASTER MEDIC S.A.,-12.113974,-76.9916199,OTROS SERVICIOS,0.0
20502853750,COVIDIEN PERU S.A.,-12.0904548,-77.0190702,MATERIAL Y EQUIPO MEDICO,0.0
20108664640,DHMONT S.A.C. CONTRATISTAS GENERALES,-12.1136879,-77.0279909,"OBRAS, CONSTRUCCIONES Y CONSULTORIAS",0.0
20600663748,J & E NAVI E.I.R.L.,-12.0653615,-77.0422565,PROD. ASEO Y LIMPIEZA,4408.0
20450674592,DISTRIBUCIONES GENERALES PROGRESO PROVEEDORES  EMPRESA INDIVIDUAL DE  RESPONSABILIDAD LIMITADA,-11.956991,-77.0521309,PROD. ASEO Y LIMPIEZA,71.0
20565213301,CORE MEDICAL E.I.R.L.,-11.8638101,-77.1138783,MATERIAL Y EQUIPO MEDICO,0.0
20490826735,CONSTRUCTORA & SERVICIOS CONTRATISTAS YUCRA E.I.R.L.,-12.0519188,-77.1133842,OTROS SERVICIOS,0.0
20521685116,INVERSIONES & REPRESENTACIONES GENERALES DECOR EIRL,-7.2438778,-79.4659825,"OBRAS, CONSTRUCCIONES Y CONSULTORIAS",0.0
20513930748,AURA TEXTILES SOCIEDAD ANONIMA CERRADA,-6.7703336,-79.8748179,MATERIAL Y EQUIPO MEDICO,0.0
20601796431,K & M INDUSTRIAL SOCIEDAD ANONIMA CERRADA - K & M INDUSTRIAL S.A.C.,-12.0443751,-76.9378009,MATERIAL Y EQUIPO MEDICO,0.0
20509997340,INTERNATIONAL DIAGNOSTIC IMAGING SAC,-12.0952577,-77.0131775,MATERIAL Y EQUIPO MEDICO,0.0
20516396009,SERVICIOS MEDICOS VIRGEN DE LA LUZ S.A.C.,-12.1055071,-76.976329,MATERIAL Y EQUIPO MEDICO,3179.0
20551663401,DISTRIBUIDORA AYMAR MEDIC S.A.C,-12.0286745,-77.0525847,MATERIAL Y EQUIPO MEDICO,0.0
20518641744,AMKO SAC CONTRATISTAS GENERALES,-12.0246277,-75.1899021,"OBRAS, CONSTRUCCIONES Y CONSULTORIAS",0.0
20511037001,GRUPO SANTA FE SOCIEDAD ANONIMA CERRADA - GRUPO SANTA FE S.A.C.,-12.0620652,-77.0062953,OTROS BIENES,0.0
20532547131,INVERSIONES MR & H SOCIEDAD ANONIMA CERRADA - INVERSIONES MR & H S.A.C.,-18.0021715,-70.2412064,OTROS BIENES,0.0
20477202145,ASOCIACION AGROPECUARIA JACAVI,-12.0458453,-77.1096191,ALIMENTOS,0.0
20454825455,LOBO SISTEMAS S.A.C.,-15.203747400000001,-69.75848319319181,MATERIAL Y EQUIPO MEDICO,39869.0
20520073214,REPRESENTACIONES INCOFER EMPRESA INDIVIDUAL DE RESPONSABILIDAD LIMITADA,-14.0446578,-75.7434657,PROD. ASEO Y LIMPIEZA,0.0
20603136081,MJO CONSULTORES S.A.C.,-12.0572758,-77.1229833,MATERIAL Y EQUIPO MEDICO,0.0
20527841586,FORESTAL MADERERA LLANOS EMPRESA INDIVIDUAL DE RESPONSABILIDAD LIMITADA,-16.4053828,-71.4972311,OTROS BIENES,0.0
20519968445,PETROLERA DE TACNA EMPRESA INDIVIDUAL DE RESPONSABILIDAD LIMITADA,-11.951731,-77.0698066,OTROS BIENES,0.0
20563941171,COMERCIAL MENDEZ E.I.R.L.,-6.7088331,-79.9002147,PROD. ASEO Y LIMPIEZA,0.0
20100121809,ADMINISTRADORA CLINICA RICARDO PALMA S.A.,-12.0907117,-77.01830143287725,OTROS SERVICIOS,0.0
20107695584,BRITISH AMERICAN HOSPITAL S.A.,-12.1089771,-77.03925347488351,OTROS SERVICIOS,0.0
20100054184,CLINICA INTERNACIONAL S A,-12.0578902,-77.0392477,OTROS SERVICIOS,0.0
20515290142,CLINICA MEDICA CAYETANO HEREDIA S.A,-8.107335,-79.0036261,OTROS SERVICIOS,0.0
20505018509,CLINICA SAN GABRIEL S A C,-12.0767174,-77.0957396617846,OTROS SERVICIOS,0.0
20517737560,CLINICA SANTA MARTHA DEL SUR SOCIEDAD ANONIMA CERRADA,-12.1630879,-76.9654098,OTROS SERVICIOS,0.0
20117357113,CONGREGACION HIJAS DE SAN CAMILO,-12.1047357,-76.9730409,OTROS SERVICIOS,0.0
20100176964,LA ESPERANZA DEL PERU S A,-12.091966450000001,-77.00848635063619,OTROS SERVICIOS,0.0
20428080671,NUESTRA SENORA DEL SAGRADO CORAZON,-12.0762707,-77.0585681,OTROS SERVICIOS,0.0
20461665820,SERVICIOS DE SALUD MONTEFIORI SAC,-12.2252545,-76.9225485,OTROS SERVICIOS,0.0
20601725551,CLINICA CERRO COLORADO S.A.C.,-5.188509,-80.608122,OTROS SERVICIOS,0.0
20544206410,CLINICA LA MERCED S.A.C.,-5.188509,-80.608122,OTROS SERVICIOS,0.0
20602822614,SAN MARTÍN ENGINEERS S.A.C.,-12.1161587,-77.0176426,"OBRAS, CONSTRUCCIONES Y CONSULTORIAS",0.0
20544761081,BELTEX S.A.C.,-13.4304631,-76.1287575,MATERIAL Y EQUIPO MEDICO,0.0
20392987674,VITALCOM E.I.R.L,-16.4019721,-71.5329457,OTROS BIENES,0.0
20477159380,SERVICIOS GENERALES KRISTEL E.I.R.L,-15.4941665,-70.1327816,OTROS BIENES,84.0
20538491056,EMPORIUM SERVICE S.A.C,-11.9647687,-77.0785394,MATERIAL Y EQUIPO MEDICO,0.0
20452731992,JAULES & MAURO S.A.C.,-7.1589433,-78.5219781,PROD. ASEO Y LIMPIEZA,364.0
20501545997,MCCARTHUR S.A.C.,-12.0740572,-77.0326484,ALOJAMIENTO TEMPORAL Y ALIMENTACIÓN,46.0
20604477205,INVERSIONES MZM E.I.R.L.,-16.4027886,-71.5396717,ALIMENTOS,0.0
20602808441,"CONSULTORES, INVERSIONES Y SERVICIOS MARCRHA S.A.C.",-3.7330964,-73.2408044,ALIMENTOS,0.0
20197705249,UNILENE S.A.C.,-12.0548931,-77.0526422,MATERIAL Y EQUIPO MEDICO,0.0
20539904877,OCUSAQ PERU S.R.L.,-12.038115346938776,-77.08379914285715,MATERIAL Y EQUIPO MEDICO,0.0
20100111838,GRIFOS ESPINOZA S A,-12.0904548,-77.0190702,OTROS BIENES,0.0
20600930801,MASTER WORLD MEDICAL SOCIEDAD ANONIMA CERRADA,-11.9911537,-77.1147991,MATERIAL Y EQUIPO MEDICO,0.0
20602018432,YAHWEH MEDICAL E.I.R.L.,-16.4156222,-71.5377109,MATERIAL Y EQUIPO MEDICO,1177.0
20100262291,COMERC. E IND DENT TARRILLO BARBA S.A.C,-12.0477626989899,-77.03498800909091,MATERIAL Y EQUIPO MEDICO,0.0
20551648436,INDUSTRIA Y SERVICIOS GENERALES SOLIS S.A.C.,-11.938431,-77.07375,MATERIAL Y EQUIPO MEDICO,694.0
20600340779,CIA MEGA MEDIC S.A.C.,-11.9016484,-77.0553457,MATERIAL Y EQUIPO MEDICO,0.0
20539559592,METAL BOARD S.A.C,-8.134874100000001,-79.05209009854508,MATERIAL Y EQUIPO MEDICO,0.0
20554112472,TECNOLOGIA MEDICA IMPORT S.A.C.,-11.8783673,-77.1166216,MATERIAL Y EQUIPO MEDICO,0.0
20602921698,HOUSE ART PROTEC EIRL.,-4.8989228,-80.6917092,MATERIAL Y EQUIPO MEDICO,0.0
20489422299,COMERCIALIZADORA DE PRODUCTOS Y CONTRATISTAS GENERALES AGAPE SOCIEDAD COMERCIAL DE RESPONSABILIDAD L,-9.40861,-75.9727,"OBRAS, CONSTRUCCIONES Y CONSULTORIAS",0.0
20601771641,GENUS SVC S.A.C.,-11.8278111,-77.1311294,ADQUISICIÓN Y ALQUILER DE VEHÍCULOS,0.0
20447849047,MIA MARKET AUTOSERVICIOS MULTIPLES SOCIEDAD COMERCIAL DE RESPONSABILIDAD LIMITADA,-16.40406777777778,-71.53120217777779,ALIMENTOS,0.0
20602986447,FUMIGACIONES INTEGRALES & SANEAMIENTO AMBIENTAL EMMANUEL S.A.C. - FUMISEM S.A.C.,-12.0940221,-74.8633772,MEDICAMENTOS,0.0
20605076832,REVCON E.I.R.L.,-17.9973888,-70.2374888,OTROS SERVICIOS,39.0
20503100356,CONSTRUCTORA TINCO CONTRATISTAS GENERALES S.R.L.,-11.838167,-77.167473,"OBRAS, CONSTRUCCIONES Y CONSULTORIAS",0.0
20568747471,GRIFO AYACCOCHA E.I.R.L.,-13.1625702,-74.2371041,OTROS BIENES,0.0
20535798509,HOSPIMEDICA INTERNATIONAL S.A.C.,-13.5318539,-73.2886928,MATERIAL Y EQUIPO MEDICO,180.0
20532900787,SERVICIOS TURISTICOS SIGLO 21 EMPRESA INDIVIDUAL DE RESPONSABILIDAD LIMITADA,-7.1502123,-78.5165535,ALOJAMIENTO TEMPORAL Y ALIMENTACIÓN,0.0
20393719444,G.N.G. COURIER  E.I.R.L.,-12.043623259183674,-77.03578848571429,OTROS SERVICIOS,0.0
20122143750,PENTA GAS SOCIEDAD ANONIMA CERRADA,-11.9910191,-77.0193082,MATERIAL Y EQUIPO MEDICO,0.0
20532814511,G & T ELECTRIC CONTRATISTAS SOCIEDAD ANONIMA CERRADA,-11.8397623,-77.1284556,OTROS BIENES,0.0
20565667247,UNIFORMES Y MODA MIRATCHI E.I.R.L.,-15.4795672,-70.1547114,MATERIAL Y EQUIPO MEDICO,317.0
20519753830,CENTRO ELECTRICO ROJESAN S.A.C. - ROJESAN S.A.C.,-6.7731506,-79.8320551,OTROS BIENES,0.0
20566394201,INVERSIONES PALOMINO A & M E.I.R.L.,-15.4795672,-70.1547114,OTROS SERVICIOS,0.0
20100047056,TOPY TOP S A,-12.019467,-76.9942615,OTROS BIENES,0.0
20604927774,DISTRIBUIDORA DROGUERIA PHARMASUR SOCIEDAD ANONIMA CERRADA-DISTRIBUIDORA DROGUERIA PHARMASUR S.A.C,-18.0086336,-70.2425584,MATERIAL Y EQUIPO MEDICO,0.0
20548834121,SERVISALUD PERU E.I.R.L.,-12.0218659,-77.0795129,PROD. ASEO Y LIMPIEZA,0.0
20121978025,EMPRESA DE TRANSPORTES NACIONALES HUMBOLT S.A.,-12.0574646,-77.0110379,OTROS SERVICIOS,0.0
20605739319,CONSTRUCTORA Y CONSULTORIA Y & H S.A.C.,-11.9773713,-77.10882905009427,"OBRAS, CONSTRUCCIONES Y CONSULTORIAS",0.0
20542804913,CORPORACION SUREÑA DE LA SELVA AMAZONICA EMPRESA INDIVIDUAL DE RESPONSABILIDAD LIMITADA-CORSURSA E.I,-12.0918115,-77.0422132,MATERIAL Y EQUIPO MEDICO,0.0
20392996401,CORPORACION INSUMEDIC S.A.C.,-12.0607556,-77.1479044,MATERIAL Y EQUIPO MEDICO,3619.0
20512932151,SPARTAN CHEMICAL PERU S.A.C.,-12.0011877,-77.1177597,PROD. ASEO Y LIMPIEZA,0.0
20537260387,SERVICIOS GRAFICOS TEXTILES SOCIEDAD  ANONIMA CERRADA,-15.4795672,-70.1547114,MATERIAL Y EQUIPO MEDICO,0.0
20542365227,S&R PERU BUSINESS SOCIEDAD ANONIMA CERRADA,-6.7449577,-79.868795,ALIMENTOS,7167.0
20517745589,ECHOPHARMA SOCIEDAD ANONIMA CERRADA - ECHOPHARMA SAC,-12.0971257,-76.9698781,MATERIAL Y EQUIPO MEDICO,0.0
20529467606,CORPORACION VILLANUEVA CABALLERO S.A.,-6.7761029,-79.8666767,OTROS SERVICIOS,0.0
20481595917,CREMATORIO Y VELATORIO LA GLORIA SAC,-8.101973,-79.0417186,OTROS SERVICIOS,0.0
20396900719,INMOBILIARIA MARIA ISABEL S.A.C.,-8.0983201,-79.0153502,OTROS SERVICIOS,0.0
20415955821,VISCANDINA S.A.C.,-12.12549135,-77.0251881379618,MATERIAL Y EQUIPO MEDICO,0.0
20526223102,"INNOVA SALUD, SEGURIDAD Y MEDIO AMBIENTE S.A.C.",-11.8397623,-77.1284556,OTROS SERVICIOS,0.0
20554712828,ABMAGRE PROVEEDORES INTEGRALES S.A.C.,-14.8382034,-75.0054094,MATERIAL Y EQUIPO MEDICO,0.0
20537127547,SEBAL FARMA DISTRIBUCIONES S.A.C.,-12.0799358,-77.0877108,MATERIAL Y EQUIPO MEDICO,0.0
20537321190,DIMERC PERU S.A.C.,-11.9288601,-77.0393274,PROD. ASEO Y LIMPIEZA,0.0
20522333051,PHARMACEUTICAL DISTOLOZA S.A.,-8.3445233,-74.599585,MEDICAMENTOS,0.0
20551159583,CORPORACION TRANSAMERICA S.A.C.,-12.0509383,-77.032958,MATERIAL Y EQUIPO MEDICO,0.0
20126806435,CREACIONES CACTUS SRLTDA,-11.9348999,-77.0438136,MATERIAL Y EQUIPO MEDICO,0.0
20529376805,CONSTRUCTOR ARTÍCULOS FERRETEROS E.I.R.L,-18.0326064,-70.2446022,"OBRAS, CONSTRUCCIONES Y CONSULTORIAS",0.0
20600909160,EPO GASES INDUSTRIALES S.R.L.,-12.041908,-77.0692258,MATERIAL Y EQUIPO MEDICO,0.0
20529389451,BARSA CONSTRUCTORES & SERVICIOS MULTIPLES S.R.L,-8.134874100000001,-79.05209009854508,OTROS SERVICIOS,0.0
20486580594,INVERSIONES VALEN'Z SOCIEDAD COMERCIAL DE RESPONSABILIDAD LIMITADA,-12.0465099360766,-77.01621640442808,MATERIAL Y EQUIPO MEDICO,614.0
20406473091,CASONA PLAZA HOTEL EMPRESA INDIVIDUAL DE RESPONSABILIDAD LIMITADA,-16.23386645,-68.98023049155165,ALOJAMIENTO TEMPORAL Y ALIMENTACIÓN,0.0
20135604551,SOCIEDAD DE BENEFICENCIA DE LIMA METROPOLITANA,-12.0502332,-77.0326749,PROD. ASEO Y LIMPIEZA,0.0
20544677374,CRIS MEDIC E.I.R.L.,-11.9938241,-77.0796411,MATERIAL Y EQUIPO MEDICO,0.0
20601500974,SERVICIOS GENERALES ARAMON E.I.R.L.,-13.6315582,-73.2629373,PROD. ASEO Y LIMPIEZA,0.0
20455313687,M PHARMA S.A.C.,-11.8390624,-77.1275478,MATERIAL Y EQUIPO MEDICO,0.0
